     2.11           OBSERVATION DATA    G (GPS)             RINEX VERSION / TYPE
teqc  2012Jan19                         20120316 15:57:35UTCPGM / RUN BY / DATE
OSX ker:10.8.0|Core 2 Duo|gcc 4.2 -m64|OSX ker:10.8.0+|=+   COMMENT
BIT 2 OF LLI FLAGS DATA COLLECTED UNDER A/S CONDITION       COMMENT
CREF0001                                                    MARKER NAME
0001                                                        MARKER NUMBER
-Unknown-           -Unknown-                               OBSERVER / AGENCY
4744140960          TRIMBLE NETRS       1.1-3               REC # / TYPE / VERS
00000000            TRM41249.00     NONE                    ANT # / TYPE
  1529215.69    -4465715.78   4275065.55                    APPROX POSITION XYZ
     1     1                                                WAVELENGTH FACT L1/2
     7    L1    L2    C1    P2    P1    S1    S2            # / TYPES OF OBSERV
    15                                                      LEAP SECONDS
 SNR is mapped to RINEX snr flag value [0-9]                COMMENT
  L1 & L2: min(max(int(snr_dBHz/6), 0), 9)                  COMMENT
  2012     3    16    13    29    7.0000000     GPS         TIME OF FIRST OBS
                                                            END OF HEADER
 12  3 16 13 29  7.0000000  0 10G02G07G08G15G29G10G05G21G04G26
   1392197.68857   1055334.77655  21859392.7424   21859388.8054
        47.7504         34.0004
    745654.32056    577038.06853  24795512.6334   24795511.1294
        37.5004         18.2504
    135043.30256    119412.39353  24586591.1484   24586591.2894
        41.2504         20.7504
   -346183.03957   -238301.52155  22715691.5554   22715689.4184
        46.5004         33.5004
    600076.77958    469105.11956  21212643.5634   21212640.8324
        50.5004         40.7504
   1493581.77115                  24770931.586
        32.750
   1073410.79358    819894.38057  20754698.4454   20754696.1454
        50.0004         42.0004
    -86212.90756    -52402.28453  24927837.4144   24927835.3164
        39.7504         20.5004
   1231649.64615                  25444415.789
        35.000
     52830.42358     60601.88156  20471452.2584   20471449.9964
        51.5004         40.0004
 12  3 16 13 29  8.0000000  0 10G02G07G08G15G29G10G05G21G04G26
   1394704.72147   1057288.30845  21859869.5394   21859865.8674
        47.5004         34.0004
    745949.95946    577268.41743  24795569.0314   24795567.5354
        37.7504         18.2504
    133318.85946    118068.68443  24586262.9774   24586263.2934
        41.0004         20.5004
   -349654.81747   -241006.79745  22715030.6024   22715028.9964
        46.5004         33.0004
    599897.88348    468965.71846  21212609.3594   21212606.8914
        50.5004         41.0004
   1496883.641 5                  24771559.141
        33.500
   1074766.35448    820950.65947  20754956.4144   20754954.0554
        50.5004         42.0004
    -89304.75946    -54811.53243  24927248.8754   24927247.0514
        40.2504         21.0004
   1234970.269 5                  25445049.016
        35.250
     50837.72248     59049.12946  20471072.9534   20471070.8164
        51.2504         40.0004
 12  3 16 13 29  9.0000000  0 10G02G07G08G15G29G10G05G21G04G26
   1397211.66947   1059241.77045  21860346.7344   21860343.1954
        47.2504         34.0004
    746245.69346    577498.86442  24795625.3204   24795624.0704
        38.2504         17.7504
    131594.36246    116724.91643  24585935.2814   24585935.3324
        41.0004         20.2504
   -353126.77147   -243712.21745  22714369.8054   22714368.0124
        46.0004         32.7504
    599719.21048    468826.49346  21212575.1564   21212572.9734
        50.5004         40.7504
   1500184.961 5                  24772186.953
        33.500
   1076121.74848    822006.80847  20755214.3834   20755211.9804
        50.2504         42.0004
    -92397.11546    -57221.16743  24926661.1804   24926658.5664
        40.5004         20.7504
   1238290.526 5                  25445680.117
        35.000
     48845.22948     57496.53646  20470693.5864   20470691.3754
        51.2504         40.0004
 12  3 16 13 29 10.0000000  0 10G02G07G08G15G29G10G05G21G04G26
   1399719.43747   1061195.87645  21860823.8674   21860819.6914
        47.0004         34.0004
    746542.51946    577730.15742  24795681.5944   24795680.3754
        38.7504         17.7504
    129870.74346    115381.83443  24585606.7034   24585607.1374
        41.0004         20.7504
   -356597.97647   -246417.06045  22713709.4614   22713707.6054
        46.2504         32.0004
    599541.67748    468688.15346  21212541.5554   21212539.1024
        50.5004         40.5004
   1503486.857 5                  24772815.477
        33.000
   1077477.94148    823063.57847  20755472.3674   20755470.0434
        50.2504         42.0004
    -95489.05446    -59630.47143  24926072.3524   24926069.9144
        40.2504         21.0004
   1241611.262 5                  25446311.844
        35.250
     46853.92648     55944.87646  20470315.1484   20470312.4884
        51.7504         40.0004
 12  3 16 13 29 11.0000000  0 10G02G07G08G15G29G10G05G21G04G26
   1402227.03247   1063149.84245  21861301.4694   21861297.4414
        47.0004         34.0004
    746839.40846    577961.49142  24795737.4144   24795736.8634
        38.5004         17.2504
    128147.03846    114038.68743  24585279.2734   24585279.5124
        40.7504         20.2504
   -360069.46247   -249122.10945  22713048.7584   22713047.3484
        46.2504         32.5004
    599364.26548    468549.90846  21212508.0234   21212504.6454
        50.7504         40.5004
   1506788.082 5                  24773443.438
        33.000
   1078833.90048    824120.16947  20755730.5164   20755727.9574
        50.0004         42.0004
    -98581.51746    -62040.18443  24925484.5784   24925481.8554
        40.0004         20.7504
   1244931.612 6                  25446944.000
        36.000
     44862.79648     54393.34346  20469936.0554   20469933.7034
        51.5004         40.0004
 12  3 16 13 29 12.0000000  0 10G02G07G08G15G29G10G05G21G04G26
   1404735.64347   1065104.60245  21861778.3754   21861774.9414
        47.2504         34.5004
    747137.54946    578193.79742  24795794.1414   24795792.8594
        38.0004         17.7504
    126424.41146    112696.38143  24584950.8524   24584951.4344
        40.5004         20.5004
   -363539.97647   -251826.40045  22712388.5474   22712387.1174
        46.5004         32.2504
    599188.19148    468412.70346  21212474.2114   21212471.3794
        51.0004         40.5004
   1510089.961 5                  24774071.586
        32.500
   1080190.82648    825177.52347  20755988.5164   20755986.1294
        50.0004         42.2504
   -101673.39446    -64449.43143  24924895.7424   24924893.5274
        39.5004         20.7504
   1248252.601 5                  25447575.867
        35.750
     42873.01548     52842.86846  20469557.3284   20469555.1994
        51.5004         40.5004
 12  3 16 13 29 13.0000000  0 10G02G07G08G15G29G10G05G21G04G26
   1407244.75447   1067059.74845  21862255.6804   21862252.3594
        47.0004         34.0004
    747436.48546    578426.72442  24795850.6334   24795850.2774
        38.7504         17.2504
    124702.41346    111354.56643  24584623.7814   24584623.7034
        40.0004         21.0004
   -367010.05547   -254530.35145  22711728.0164   22711726.4614
        46.0004         32.5004
    599012.93648    468276.13846  21212441.3134   21212438.0944
        50.7504         40.5004
   1513392.034 5                  24774699.547
        33.000
   1081548.22748    826235.23547  20756247.1024   20756244.6094
        50.0004         42.0004
   -104765.11846    -66858.55943  24924307.3204   24924305.1174
        39.7504         20.7504
   1251573.880 6                  25448207.031
        36.000
     40884.10348     51293.06946  20469179.0634   20469176.4574
        51.0004         40.7504
 12  3 16 13 29 14.0000000  0 10G02G07G08G15G29G10G05G21G04G26
   1409752.90947   1069014.15545  21862733.0554   21862729.7274
        47.5004         34.0004
    747734.63646    578659.05442  24795908.2034   24795906.9964
        38.7504         17.7504
    122979.49846    110012.04043  24584295.7894   24584295.8794
        41.0004         21.0004
   -370481.18947   -257235.12745  22711067.6954   22711066.1484
        46.5004         33.0004
    598837.01748    468139.05446  21212407.8984   21212404.5984
        51.0004         41.0004
   1516692.689 5                  24775327.836
        32.750
   1082904.62848    827292.17047  20756505.0554   20756502.7734
        49.7504         42.0004
   -107858.20146    -69268.75243  24923719.0554   24923716.5004
        39.5004         20.7504
   1254893.879 6                  25448839.242
        36.250
     38894.56748     49742.77346  20468800.2894   20468798.0944
        50.7504         40.7504
 12  3 16 13 29 15.0000000  0 10G02G07G08G15G29G10G05G21G04G26
   1412262.55947   1070969.72645  21863211.1174   21863207.3874
        47.5004         34.0004
    748034.54446    578892.75442  24795965.2974   24795963.8914
        38.5004         17.2504
    121258.16846    108670.74443  24583968.0554   24583968.2504
        40.7504         21.0004
   -373950.88247   -259938.77845  22710407.1094   22710405.5554
        46.0004         33.2504
    598662.91748    468003.39146  21212374.6804   21212371.9494
        51.5004         41.0004
   1519994.480 5                  24775955.805
        33.250
   1084262.46248    828350.22247  20756763.8914   20756760.8834
        50.0004         42.0004
   -110950.15046    -71678.09543  24923130.3524   24923128.2974
        39.2504         20.7504
   1258215.080 6                  25449470.344
        37.000
     36906.85848     48193.91146  20468421.9064   20468419.7704
        50.2504         40.5004
 12  3 16 13 29 16.0000000  0 10G02G07G08G15G29G10G05G21G04G26
   1414772.58847   1072925.58845  21863688.3364   21863684.6954
        47.7504         34.2504
    748335.08946    579126.97442  24796022.1414   24796020.9694
        38.2504         17.7504
    119537.26746    107329.77443  24583641.1334   24583640.8674
        41.0004         20.7504
   -377420.31047   -262642.22545  22709747.0704   22709745.6454
        46.2504         33.5004
    598489.49348    467868.26046  21212341.8204   21212338.7814
        51.2504         40.7504
   1523296.313 5                  24776584.219
        33.000
   1085620.62848    829408.53247  20757021.8754   20757019.2734
        50.0004         42.0004
   -114042.17346    -74087.43643  24922541.5554   24922540.0554
        39.2504         20.7504
   1261536.390 6                  25450102.305
        37.250
     34919.85648     46645.60146  20468043.8524   20468041.4384
        50.5004         40.0004
 12  3 16 13 29 17.0000000  0 10G02G07G08G15G29G10G05G21G04G26
   1417282.29147   1074881.19645  21864166.0864   21864162.3364
        47.0004         34.2504
    748635.53046    579361.09942  24796079.1564   24796078.3094
        38.5004         17.2504
    117816.15146    105988.64843  24583312.9844   24583313.1604
        40.7504         20.5004
   -380890.11047   -265345.96045  22709086.5314   22709084.9694
        46.5004         33.5004
    598316.05248    467733.11546  21212308.4384   21212305.5434
        51.0004         40.5004
   1526597.423 5                  24777211.914
        32.250
   1086978.44848    830466.57947  20757280.4694   20757277.9064
        50.0004         42.0004
   -117134.84446    -76497.31543  24921953.2114   24921951.4694
        39.0004         20.5004
   1264857.117 6                  25450734.547
        37.500
     32932.90348     45097.33146  20467665.6024   20467663.4534
        50.5004         40.0004
 12  3 16 13 29 18.0000000  0 10G02G07G08G15G29G10G05G21G04G26
   1419792.68947   1076837.35045  21864644.2664   21864640.0234
        47.5004         34.2504
    748936.91646    579595.94042  24796136.3984   24796135.2464
        37.7504         17.2504
    116095.77546    104648.09543  24582986.1884   24582985.8164
        40.2504         20.2504
   -384359.26647   -268049.20145  22708426.5394   22708425.1134
        46.5004         33.2504
    598143.62548    467598.76046  21212275.6484   21212272.8324
        50.7504         40.7504
   1529898.844 5                  24777840.930
        32.000
   1088336.90148    831525.11547  20757538.7814   20757536.1374
        50.0004         42.2504
   -120227.25846    -78906.98243  24921365.1414   24921362.9804
        39.0004         20.5004
   1268178.265 6                  25451367.625
        37.750
     30946.98548     43549.86346  20467287.9694   20467285.3404
        51.0004         40.2504
 12  3 16 13 29 19.0000000  0 10G02G07G08G15G29G10G05G21G04G26
   1422303.63447   1078793.93145  21865121.3754   21865117.4964
        47.5004         34.7504
    749239.11246    579831.38442  24796194.4694   24796193.1334
        37.5004         17.7504
    114376.03746    103308.05543  24582659.1564   24582658.2854
        40.5004         20.2504
   -387827.97347   -270752.08745  22707766.3914   22707764.6524
        47.0004         33.2504
    597972.03948    467465.05646  21212242.6884   21212240.3634
        50.5004         40.7504
   1533200.329 5                  24778466.977
        32.000
   1089695.87048    832584.04447  20757797.3834   20757794.8754
        50.0004         42.2504
   -123319.49646    -81316.52943  24920776.2814   24920774.3054
        39.2504         21.5004
   1271499.593 6                  25451999.313
        38.000
     28961.96148     42003.08946  20466910.1484   20466908.1024
        51.0004         40.0004
 12  3 16 13 29 20.0000000  0 10G02G07G08G15G29G10G05G21G04G26
   1424814.75347   1080750.64245  21865599.2344   21865595.9804
        47.7504         34.2504
    749541.65646    580067.11542  24796251.8594   24796250.8914
        38.0004         17.7504
    112656.53946    101968.18543  24582331.5554   24582331.1294
        41.0004         20.2504
   -391296.58847   -273454.90345  22707106.5314   22707104.7504
        47.0004         33.0004
    597800.93548    467331.72846  21212210.0084   21212207.5124
        50.7504         40.2504
   1536501.717 5                  24779097.172
        32.500
   1091054.93448    833643.05647  20758056.1254   20758053.4384
        50.5004         42.2504
   -126411.93946    -83726.21943  24920188.0944   24920185.4734
        39.2504         21.5004
   1274820.864 6                  25452630.953
        36.750
     26977.44048     40456.71546  20466532.7114   20466530.2304
        51.0004         40.5004
 12  3 16 13 29 21.0000000  0 10G02G07G08G15G29G10G05G21G04G26
   1427326.10448   1082707.53845  21866076.9304   21866073.9654
        48.0004         34.2504
    749844.71546    580303.26942  24796310.0314   24796308.6564
        37.7504         17.2504
    110937.35946    100628.56943  24582004.9694   24582003.9534
        41.2504         20.0004
   -394765.04147   -276157.59345  22706446.4224   22706444.6644
        47.0004         33.0004
    597630.40048    467198.83946  21212177.7894   21212174.9694
        50.7504         40.0004
   1539802.971 5                  24779723.500
        31.000
   1092414.23448    834702.25347  20758314.7814   20758312.4224
        50.2504         42.2504
   -129504.53646    -86136.04243  24919599.0234   24919597.4924
        38.5004         21.2504
   1278142.083 6                  25453263.883
        36.500
     24993.52948     38910.80946  20466155.2034   20466152.7974
        51.0004         40.5004
 12  3 16 13 29 22.0000000  0 10G02G07G08G15G29G10G05G21G04G26
   1429838.02148   1084664.88045  21866555.4454   21866551.7114
        48.0004         34.0004
    750148.57346    580540.06442  24796367.5634   24796365.9964
        38.0004         17.2504
    109218.80446     99289.43143  24581677.4774   24581676.7624
        41.5004         20.2504
   -398233.01047   -278859.90745  22705786.4454   22705784.9614
        46.7504         32.5004
    597460.71248    467066.61546  21212145.5944   21212143.0084
        50.5004         40.2504
   1543104.357 5                  24780351.641
        31.750
   1093774.03148    835761.82547  20758573.3204   20758571.0594
        50.7504         42.0004
   -132596.98646    -88545.73543  24919010.5944   24919009.0124
        39.2504         21.5004
   1281463.504 6                  25453895.125
        36.750
     23010.49748     37365.58546  20465777.5394   20465775.5864
        51.0004         40.2504
 12  3 16 13 29 23.0000000  0 10G02G07G08G15G29G10G05G21G04G26
   1432349.91548   1086622.19345  21867033.6724   21867029.9694
        48.0004         34.5004
    750452.65846    580777.04542  24796426.0704   24796424.3524
        38.5004         17.2504
    107500.31546     97950.33843  24581350.3984   24581349.6174
        40.7504         21.0004
   -401701.04647   -281562.27745  22705126.8524   22705124.8834
        46.7504         33.2504
    597291.33648    466934.62746  21212113.2504   21212110.9614
        50.0004         40.0004
   1546405.414 5                  24780981.867
        32.000
   1095133.75648    836821.35347  20758832.2194   20758829.6764
        50.5004         42.0004
   -135689.81846    -90955.74143  24918422.5394   24918420.6914
        39.0004         21.2504
   1284784.643 6                  25454527.297
        37.750
     21027.80548     35820.62946  20465400.0704   20465398.4224
        50.5004         40.5004
 12  3 16 13 29 24.0000000  0 10G02G07G08G15G29G10G05G21G04G26
   1434863.34048   1088580.70145  21867511.7664   21867507.9614
        48.0004         34.5004
    750758.52846    581015.38242  24796483.4614   24796482.2934
        37.5004         17.2504
    105783.45946     96612.52643  24581023.9384   24581023.1024
        41.0004         20.7504
   -405167.62447   -284263.49945  22704466.7814   22704465.4414
        46.7504         32.7504
    597123.79648    466804.08546  21212081.5084   21212079.1054
        50.2504         40.0004
   1549707.539 5                  24781607.703
        31.250
   1096494.98248    837882.05347  20759091.3594   20759088.6334
        50.0004         42.2504
   -138781.49446    -93364.86243  24917834.5394   24917832.1954
        39.0004         21.0004
   1288107.072 6                  25455157.914
        37.750
     19046.98448     34277.13446  20465023.1024   20465020.9694
        50.5004         40.5004
 12  3 16 13 29 25.0000000  0 10G02G07G08G15G29G10G05G21G04G26
   1437375.94648   1090538.57645  21867989.5314   21867986.2274
        48.2504         34.2504
    751063.83046    581253.27242  24796541.7584   24796540.3984
        36.5004         16.7504
    104065.83546     95274.12043  24580696.8914   24580696.3914
        40.7504         21.0004
   -408635.12747   -286965.45245  22703806.9614   22703805.6174
        47.0004         32.7504
    596955.72648    466673.11246  21212049.8204   21212046.6454
        50.5004         39.7504
   1553008.512 5                  24782234.922
        31.500
   1097855.33048    838942.05747  20759350.2504   20759347.6134
        50.0004         42.2504
   -141874.39246    -95774.88143  24917245.9614   24917243.5164
        39.7504         20.7504
   1291428.319 6                  25455791.914
        38.500
     17065.68848     32733.26646  20464646.2584   20464644.1954
        50.7504         40.5004
 12  3 16 13 29 26.0000000  0 10G02G07G08G15G29G10G05G21G04G26
   1439889.23248   1092496.98545  21868467.8984   21868464.5354
        48.2504         34.2504
    751370.02246    581491.83742  24796600.2344   24796598.9144
        37.2504         16.7504
    102348.97746     93936.31843  24580369.8984   24580369.5634
        40.7504         21.0004
   -412101.99747   -289666.90645  22703147.1484   22703145.8134
        47.0004         33.2504
    596788.67648    466542.94646  21212017.8594   21212014.8874
        50.5004         39.7504
   1556309.771 5                  24782863.883
        31.000
   1099216.33948    840002.58747  20759609.1094   20759606.6484
        49.5004         42.2504
   -144966.99246    -98184.70643  24916657.2194   24916655.0234
        40.0004         21.0004
   1294750.023 6                  25456423.805
        38.000
     15085.43148     31190.21046  20464269.2034   20464267.3164
        50.5004         40.5004
 12  3 16 13 29 27.0000000  0 10G02G07G08G15G29G10G05G21G04G26
   1442402.55948   1094455.41845  21868946.0004   21868942.7734
        48.5004         34.2504
    751676.55046    581730.66942  24796658.6334   24796657.0004
        38.2504         16.2504
    100632.23446     92598.60343  24580043.2584   24580042.7734
        40.5004         20.5004
   -415568.89547   -292368.38245  22702487.7034   22702485.9264
        46.2504         33.0004
    596621.97648    466413.05646  21211986.4694   21211982.9924
        50.5004         40.0004
   1559610.704 5                  24783491.750
        31.000
   1100577.32748    841063.09847  20759868.0634   20759865.4384
        50.0004         42.2504
   -148059.91746   -100594.76843  24916068.7034   24916066.0394
        40.0004         21.0004
   1298071.495 6                  25457055.930
        37.500
     13105.56048     29647.45646  20463892.5084   20463890.2544
        50.7504         40.5004
 12  3 16 13 29 28.0000000  0 10G02G07G08G15G29G10G05G21G04G26
   1444916.36648   1096414.23345  21869424.3054   21869420.9804
        48.5004         34.5004
    751983.75446    581970.07842  24796717.3284   24796715.8284
        38.5004         16.2504
     98916.05746     91261.33643  24579716.9534   24579716.5314
        40.5004         20.5004
   -419035.39747   -295069.55545  22701828.1094   22701826.3134
        46.2504         33.0004
    596456.04948    466283.76546  21211954.8364   21211952.0474
        50.5004         40.0004
   1562911.737 5                  24784120.125
        31.500
   1101938.74748    842123.94947  20760126.7584   20760125.0274
        50.2504         42.2504
   -151152.78646   -103004.79743  24915480.4774   24915477.6484
        39.5004         21.0004
   1301393.107 6                  25457687.883
        38.250
     11126.50748     28105.34246  20463515.8594   20463513.9454
        51.0004         40.0004
 12  3 16 13 29 29.0000000  0 10G02G07G08G15G29G10G05G21G04G26
   1447431.08048   1098373.75045  21869902.7584   21869899.6454
        48.2504         34.5004
    752292.11246    582210.36042  24796776.0944   24796774.3014
        38.7504         16.2504
     97200.83746     89924.80643  24579389.9534   24579389.9024
        40.5004         20.2504
   -422501.06947   -297770.07445  22701168.6564   22701166.7344
        46.0004         33.0004
    596291.34548    466155.42246  21211923.0554   21211920.2814
        50.2504         40.0004
   1566213.314 5                  24784747.938
        30.500
   1103301.04748    843185.47747  20760386.6334   20760384.1294
        50.2504         42.2504
   -154245.12246   -105414.41643  24914891.7034   24914889.5784
        39.5004         21.0004
   1304715.348 6                  25458320.852
        38.750
      9148.71048     26564.20646  20463139.5944   20463137.3244
        50.7504         40.0004
 12  3 16 13 29 30.0000000  0 10G02G07G08G15G29G10G05G21G04G26
   1449945.76448   1100333.24545  21870381.3594   21870378.2814
        48.2504         34.2504
    752600.71146    582450.82442  24796833.9304   24796833.2154
        38.0004         16.2504
     95485.71446     88588.34443  24579063.5004   24579063.5044
        40.0004         20.7504
   -425966.84947   -300470.67245  22700508.8834   22700507.0784
        46.0004         32.5004
    596126.93248    466027.30846  21211891.6334   21211889.2464
        50.5004         40.0004
   1569514.448 5                  24785376.766
        31.000
   1104663.26348    844246.94147  20760645.4924   20760642.8754
        50.5004         42.2504
   -157337.88246   -107824.36243  24914302.8204   24914300.8364
        40.2504         21.0004
   1308037.318 6                  25458952.328
        38.250
      7171.23448     25023.31546  20462763.3914   20462761.5594
        50.7504         40.0004
 12  3 16 13 29 31.0000000  0 10G02G07G08G15G29G10G05G21G04G26
   1452460.63248   1102292.87345  21870859.9224   21870856.7464
        48.2504         34.0004
    752909.67346    582691.56242  24796893.1484   24796891.3094
        37.7504         16.2504
     93770.80446     87252.07143  24578737.5554   24578737.0704
        39.7504         20.7504
   -429432.49247   -303171.16445  22699849.4454   22699847.7504
        46.0004         32.7504
    595963.01048    465899.56946  21211860.5164   21211858.1334
        50.2504         39.7504
   1572815.383 5                  24786004.477
        31.250
   1106025.59948    845308.50347  20760905.2894   20760902.5004
        50.5004         42.2504
   -160430.81946   -110234.44443  24913715.5164   24913712.7304
        39.7504         21.2504
   1311359.127 6                  25459584.547
        37.500
      5194.25848     23482.80646  20462387.4454   20462384.9534
        50.2504         40.0004
 12  3 16 13 29 32.0000000  0 10G02G07G08G15G29G10G05G21G04G26
   1454975.82448   1104252.75445  21871338.6804   21871335.6374
        48.0004         34.5004
    753219.26346    582932.81842  24796952.0944   24796950.7704
        38.2504         16.2504
     92056.32146     85916.12043  24578410.9924   24578410.6724
        39.7504         21.2504
   -432897.91747   -305871.49445  22699189.9774   22699188.4494
        46.0004         33.0004
    595799.72648    465772.34146  21211829.4224   21211826.6254
        50.0004         39.7504
   1576116.255 5                  24786633.797
        31.000
   1107388.22548    846370.28747  20761164.1484   20761161.4844
        50.2504         42.5004
   -163523.86046   -112644.61743  24913127.1644   24913123.6094
        40.5004         21.2504
   1314680.971 6                  25460216.711
        37.500
      3217.96648     21942.83646  20462011.0944   20462009.0984
        50.0004         40.0004
 12  3 16 13 29 33.0000000  0 10G02G07G08G15G29G10G05G21G04G26
   1457491.44648   1106212.97645  21871817.6644   21871814.2234
        48.0004         35.0004
    753529.54546    583174.61042  24797010.3134   24797009.5204
        38.0004         16.7504
     90342.34546     84580.56143  24578084.5004   24578084.4344
        38.7504         21.5004
   -436362.94747   -308571.52145  22698530.4144   22698528.4694
        46.0004         33.5004
    595637.19648    465645.69246  21211798.3594   21211795.7584
        50.0004         39.5004
   1579417.287 5                  24787261.492
        31.500
   1108751.26548    847432.39947  20761423.7584   20761420.7894
        50.5004         42.5004
   -166616.78146   -115054.68843  24912537.8284   24912534.9104
        40.7504         20.7504
   1318002.988 6                  25460848.836
        37.750
      1242.47548     20403.49646  20461635.2664   20461632.8874
        49.7504         40.2504
 12  3 16 13 29 34.0000000  0 10G02G07G08G15G29G10G05G21G04G26
   1460007.37048   1108173.43245  21872296.0084   21872292.7274
        48.5004         35.0004
    753840.30546    583416.74642  24797070.0474   24797068.7274
        38.2504         17.2504
     88628.75446     83245.27543  24577759.3284   24577758.3324
        38.5004         21.5004
   -439827.77347   -311271.38945  22697871.5634   22697869.3484
        45.7504         32.7504
    595475.27248    465519.51946  21211767.8754   21211764.7734
        50.0004         39.2504
   1582718.156 5                  24787890.133
        31.250
   1110114.52548    848494.68047  20761683.1564   20761680.8364
        50.7504         42.5004
   -169709.85346   -117464.88843  24911949.7274   24911946.7154
        40.5004         20.7504
   1321324.990 6                  25461480.734
        37.750
      -732.37548     18864.64346  20461259.4534   20461257.1804
        50.0004         40.0004
 12  3 16 13 29 35.0000000  0 10G02G07G08G15G29G10G05G21G04G26
   1462524.06648   1110134.49445  21872775.1484   21872771.8874
        48.5004         34.7504
    754152.14146    583659.71042  24797128.5234   24797128.0704
        37.5004         17.7504
     86915.99746     81910.64543  24577432.6024   24577432.3164
        39.5004         20.7504
   -443291.88147   -313970.69145  22697212.1024   22697210.3324
        45.7504         32.5004
    595314.41748    465394.17446  21211737.2034   21211734.3404
        50.2504         39.0004
   1586019.383 5                  24788518.398
        31.750
   1111478.54548    849557.55047  20761942.7034   20761940.1094
        50.7504         42.2504
   -172802.51946   -119874.75943  24911360.2194   24911357.3554
        40.7504         20.7504
   1324647.451 6                  25462113.211
        38.250
     -2706.10848     17326.67046  20460883.9844   20460881.6414
        50.5004         40.0004
 12  3 16 13 29 36.0000000  0 10G02G07G08G15G29G10G05G21G04G26
   1465040.85248   1112095.62545  21873254.4144   21873251.1724
        48.2504         35.0004
    754464.27246    583902.94643  24797188.3754   24797187.1914
        37.5004         18.2504
     85203.43946     80576.17143  24577107.0634   24577106.7934
        38.7504         20.7504
   -446755.94247   -316669.94645  22696552.5234   22696551.2154
        45.2504         32.7504
    595153.98848    465269.17346  21211706.8914   21211703.9654
        50.2504         39.2504
   1589320.459 5                  24789146.289
        31.750
   1112842.60548    850620.45447  20762202.2974   20762199.8874
        50.7504         42.2504
   -175895.46346   -122284.82343  24910772.2114   24910769.1764
        40.2504         20.7504
   1327969.824 6                  25462744.820
        38.000
     -4679.39648     15789.04346  20460508.7424   20460506.4304
        50.5004         40.0004
 12  3 16 13 29 37.0000000  0 10G02G07G08G15G29G10G05G21G04G26
   1467558.07048   1114057.09645  21873733.2194   21873729.9804
        48.2504         34.7504
    754777.10746    584146.70242  24797247.2734   24797246.7504
        37.5004         17.7504
     83491.38046     79242.09943  24576781.5944   24576780.7854
        38.5004         20.5004
   -450219.70447   -319368.99045  22695893.6174   22695891.7894
        46.0004         33.0004
    594994.28048    465144.71846  21211676.1954   21211673.5234
        50.5004         39.2504
   1592621.481 5                  24789774.578
        31.000
   1114207.04948    851683.66047  20762461.9844   20762459.3244
        50.5004         42.2504
   -178988.44746   -124694.89443  24910183.2034   24910180.9304
        40.0004         21.2504
   1331292.284 6                  25463376.531
        38.250
     -6651.91648     14252.01046  20460133.2424   20460131.0044
        50.7504         40.0004
 12  3 16 13 29 38.0000000  0 10G02G07G08G15G29G10G05G21G04G26
   1470075.41348   1116018.66645  21874212.1484   21874209.1414
        48.2504         34.2504
    755090.27846    584390.73442  24797307.2504   24797306.2624
        37.5004         17.7504
     81779.48146     77908.16243  24576455.4384   24576454.8594
        39.5004         20.7504
   -453683.40047   -322067.97845  22695234.6954   22695232.7114
        45.7504         32.7504
    594835.00648    465020.60946  21211645.9064   21211643.3054
        50.5004         39.5004
   1595922.250 5                  24790401.453
        30.500
   1115571.57248    852746.92147  20762721.4454   20762718.8834
        50.5004         42.5004
   -182081.61646   -127105.19543  24909594.8134   24909592.2734
        40.2504         21.5004
   1334614.541 6                  25464009.602
        37.250
     -8623.98748     12715.33546  20459757.8834   20459755.3364
        50.2504         40.2504
 12  3 16 13 29 39.0000000  0 10G02G07G08G15G29G10G05G21G04G26
   1472593.47748   1117980.79445  21874691.3284   21874688.0004
        48.0004         34.5004
    755404.46446    584635.56542  24797366.8054   24797366.1524
        37.2504         17.2504
     80068.39046     76574.85743  24576130.5554   24576129.3404
        39.0004         21.0004
   -457146.43247   -324766.44345  22694575.6414   22694573.9924
        45.5004         32.5004
    594676.77848    464897.31546  21211616.0004   21211613.3794
        50.5004         39.5004
   1599223.385 5                  24791029.836
        30.500
   1116936.75848    853810.69847  20762981.1334   20762978.8634
        50.2504         42.5004
   -185174.50446   -129515.25343  24909006.3984   24909003.8134
        40.0004         21.2504
   1337937.238 6                  25464642.422
        36.750
    -10594.96548     11179.51046  20459382.4844   20459380.5084
        50.0004         40.5004
 12  3 16 13 29 40.0000000  0 10G02G07G08G15G29G10G05G21G04G26
   1475111.73947   1119943.07545  21875170.5004   21875167.5314
        47.7504         34.5004
    755719.04246    584880.67442  24797427.2034   24797425.8714
        36.7504         16.7504
     78357.61746     75241.79843  24575804.6174   24575804.1374
        39.0004         21.2504
   -460609.34647   -327464.81445  22693916.4694   22693915.0864
        45.5004         32.2504
    594519.03248    464774.39746  21211585.6414   21211583.1334
        50.0004         39.5004
   1602524.354 5                  24791656.930
        30.500
   1118302.09848    854874.60047  20763240.6804   20763238.5354
        50.0004         42.2504
   -188267.55046   -131925.42143  24908417.6414   24908415.0594
        39.5004         21.2504
   1341259.883 6                  25465274.805
        36.000
    -12565.40748      9644.10046  20459007.6484   20459005.3914
        50.5004         40.2504
 12  3 16 13 29 41.0000000  0 10G02G07G08G15G29G10G05G21G04G26
   1477630.18648   1121905.49545  21875649.5634   21875646.7384
        48.2504         34.7504
    756034.07546    585126.14142  24797487.0944   24797485.8284
        36.7504         16.2504
     76647.11546     73908.96543  24575479.5164   24575478.6334
        39.5004         21.0004
   -464072.10947   -330163.06945  22693257.7504   22693256.1484
        46.0004         32.2504
    594361.84248    464651.91146  21211555.6804   21211553.6024
        50.5004         39.7504
   1605825.133 5                  24792286.211
        31.000
   1119667.62348    855938.64247  20763500.8984   20763498.6884
        50.2504         42.5004
   -191360.79046   -134335.72743  24907829.6254   24907826.1174
        40.2504         21.0004
   1344582.435 6                  25465907.016
        36.250
    -14535.29148      8109.13346  20458632.6724   20458630.7894
        50.5004         40.0004
 12  3 16 13 29 42.0000000  0 10G02G07G08G15G29G10G05G21G04G26
   1480148.39148   1123867.73045  21876128.9774   21876125.7584
        48.2504         34.7504
    756349.09646    585371.63042  24797547.6334   24797546.1724
        38.0004         16.7504
     74936.42646     72575.95743  24575153.2664   24575153.0554
        39.5004         20.7504
   -467535.20547   -332861.58545  22692599.0314   22692597.5744
        45.7504         33.5004
    594204.70448    464529.45846  21211526.0234   21211523.5784
        50.2504         40.0004
   1609125.241 5                  24792914.742
        31.750
   1121032.83248    857002.44347  20763760.8914   20763758.2034
        49.7504         42.7504
   -194454.68246   -136746.54743  24907240.3984   24907237.4694
        40.0004         21.0004
   1347904.457 6                  25466539.648
        36.750
    -16505.09448      6574.21546  20458258.1094   20458255.7074
        51.0004         40.0004
 12  3 16 13 29 43.0000000  0 10G02G07G08G15G29G10G05G21G04G26
   1482668.34748   1125831.32245  21876608.4384   21876604.9924
        48.5004         35.0004
    756666.13446    585618.68242  24797607.9224   24797606.1374
        37.2504         16.7504
     73227.57346     71244.35743  24574827.9454   24574827.5554
        38.5004         20.2504
   -470996.63147   -335558.79345  22691940.1564   22691938.7154
        45.7504         33.0004
    594049.59748    464408.59646  21211496.4774   21211494.0904
        50.2504         40.0004
   1612426.802 5                  24793545.180
        32.250
   1122399.74148    858067.57347  20764020.8444   20764018.4454
        49.5004         42.7504
   -197547.19046   -139156.29543  24906651.7814   24906649.0944
        40.5004         21.0004
   1351227.893 6                  25467171.555
        37.250
    -18472.81048      5040.93246  20457883.9224   20457881.4224
        51.0004         40.0004
 12  3 16 13 29 44.0000000  0 10G02G07G08G15G29G10G05G21G04G26
   1485188.02248   1127794.70545  21877088.1254   21877084.5234
        48.7504         34.5004
    756983.12646    585865.67542  24797667.4454   24797666.3594
        36.0004         16.7504
     71518.49946     69912.60143  24574502.6564   24574502.6644
        39.0004         20.0004
   -474458.40547   -338256.27645  22691281.6724   22691279.5354
        46.5004         33.5004
    593894.52648    464287.76146  21211467.0164   21211464.4454
        50.2504         40.0004
   1615727.653 5                  24794172.813
        32.250
   1123766.33148    859132.44247  20764281.1174   20764278.6604
        50.0004         43.0004
   -200640.38546   -141566.57543  24906063.1334   24906060.2974
        40.5004         21.0004
   1354550.784 6                  25467803.922
        36.500
    -20440.45148      3507.70746  20457509.4534   20457507.1214
        51.0004         40.0004
 12  3 16 13 29 45.0000000  0 10G02G07G08G15G29G10G05G21G04G26
   1487707.84048   1129758.19845  21877567.6804   21877564.6214
        48.7504         34.0004
    757300.44746    586112.91442  24797727.7424   24797726.8954
        36.0004         16.7504
     69809.63746     68581.04343  24574177.1174   24574177.4454
        39.0004         20.0004
   -477920.12247   -340953.71745  22690622.5634   22690621.0434
        46.5004         34.0004
    593739.92648    464167.29746  21211437.7894   21211435.0044
        50.7504         40.0004
   1619028.334 5                  24794799.516
        31.750
   1125133.01548    860197.39147  20764541.2034   20764538.6214
        50.0004         42.2504
   -203733.79446   -143977.02743  24905474.1644   24905471.6174
        40.2504         20.7504
   1357873.531 6                  25468435.914
        36.750
    -22407.58348      1974.87546  20457134.7894   20457132.8204
        51.0004         39.5004
 12  3 16 13 29 46.0000000  0 10G02G07G08G15G29G10G05G21G04G26
   1490228.10848   1131722.03645  21878047.0784   21878044.0514
        48.0004         34.0004
    757618.50846    586360.75642  24797788.6564   24797787.3204
        36.5004         16.7504
     68101.37446     67249.91743  24573851.9534   24573852.1054
        38.7504         19.7504
   -481381.44747   -343650.84745  22689964.0004   22689962.7384
        46.7504         34.0004
    593586.08448    464047.42046  21211408.1094   21211405.6374
        51.0004         40.2504
   1622328.997 5                  24795428.039
        31.750
   1126500.10848    861262.65547  20764800.9454   20764798.4344
        50.0004         42.2504
   -206827.13146   -146387.41943  24904885.4384   24904882.9694
        39.5004         21.5004
   1361196.393 6                  25469068.320
        36.750
    -24373.93948       442.64346  20456760.6564   20456758.7194
        51.5004         40.0004
 12  3 16 13 29 47.0000000  0 10G02G07G08G15G29G10G05G21G04G26
   1492748.79548   1133686.20845  21878526.4924   21878523.3524
        48.2504         33.7504
    757937.22346    586609.11642  24797849.3444   24797848.4414
        36.5004         16.7504
     66393.53446     65919.13143  24573527.1334   24573527.0204
        39.2504         20.0004
   -484842.43547   -346347.72645  22689305.6564   22689304.4534
        47.0004         34.0004
    593432.95148    463928.10046  21211379.2584   21211376.4924
        50.5004         40.5004
   1625629.711 5                  24796056.547
        31.750
   1127867.57248    862328.21047  20765061.2584   20765059.0004
        50.2504         42.0004
   -209920.45146   -148797.80143  24904297.0784   24904294.0664
        39.5004         21.5004
   1364519.420 6                  25469700.727
        37.500
    -26339.52648     -1088.98246  20456386.5314   20456384.4414
        51.2504         39.7504
 12  3 16 13 29 48.0000000  0 10G02G07G08G15G29G10G05G21G04G26
   1495269.65847   1135650.51345  21879005.9384   21879003.3634
        47.7504         33.7504
    758256.37646    586857.79642  24797909.7034   24797909.3834
        37.5004         16.7504
     64685.98046     64588.58143  24573202.2424   24573202.0204
        38.7504         20.2504
   -488303.31047   -349044.51045  22688646.6804   22688645.6804
        46.2504         33.5004
    593280.34648    463809.18646  21211350.1334   21211347.5084
        50.5004         40.0004
   1628930.243 5                  24796686.391
        32.000
   1129235.16648    863393.87447  20765321.8984   20765319.4654
        49.7504         42.0004
   -213014.00146   -151208.35143  24903708.2734   24903705.1374
        39.0004         21.5004
   1367842.318 6                  25470333.234
        37.000
    -28304.59548     -2620.20446  20456012.5944   20456010.5704
        50.0004         39.7504
 12  3 16 13 29 49.0000000  0 11G02G07G08G15G18G29G10G05G21G04G26
   1497787.31248   1137612.32445  21879485.3914   21879482.3834
        48.0004         33.5004
    758572.51846    587104.16542  24797969.8444   24797969.1214
        36.2504         17.7504
     62975.29046     63255.58843  24572877.4064   24572876.6334
        39.0004         20.5004
   -491767.44447   -351743.83645  22687987.7344   22687986.0434
        46.0004         33.5004
    607990.49515                  25643832.914
        32.250
    593124.80948    463687.98946  21211320.4924   21211317.9884
        50.5004         40.2504
   1632227.202 5                  24797311.453
        30.750
   1130599.51248    864456.99847  20765581.1724   20765578.8484
        49.5004         42.2504
   -216111.10446   -153621.68043  24903118.7974   24903116.0984
        38.5004         21.2504
   1371161.781 6                  25470965.242
        37.750
    -30272.51548     -4153.64346  20455638.1174   20455636.2704
        50.0004         39.7504
 12  3 16 13 29 50.0000000  0 11G02G07G08G15G18G29G10G05G21G04G26
   1500309.14348   1139577.38345  21879965.0474   21879961.8484
        48.0004         34.0004
    758893.09546    587353.96342  24798031.3284   24798030.4884
        36.7504         17.7504
     61268.85646     61925.87843  24572553.3134   24572551.9024
        39.2504         20.5004
   -495227.50747   -354439.98745  22687329.1804   22687327.7234
        46.0004         33.5004
    605195.424 5                  25643300.781
        32.250
    592973.75748    463570.28746  21211291.8914   21211289.3874
        50.5004         40.0004
   1635527.912 5                  24797939.539
        30.750
   1131967.98848    865523.33947  20765841.5554   20765839.2114
        50.0004         42.0004
   -219204.43346   -156032.05043  24902530.3834   24902527.1134
        39.0004         21.0004
   1374485.069 6                  25471597.617
        37.250
    -32235.91848     -5683.56746  20455264.2194   20455261.9884
        49.7504         39.7504
 12  3 16 13 29 51.0000000  0 11G02G07G08G15G18G29G10G05G21G04G26
   1502831.16448   1141542.58845  21880444.9924   21880441.9964
        48.5004         34.0004
    759214.17446    587604.15243  24798092.0234   24798091.5554
        36.0004         18.2504
     59562.68946     60596.38343  24572228.2664   24572227.5824
        39.0004         20.2504
   -498687.43147   -357136.03245  22686670.8984   22686669.3754
        46.7504         33.5004
    602400.281 5                  25642769.328
        32.750
    592823.20848    463452.97646  21211263.1484   21211260.8284
        50.7504         40.0004
   1638828.476 5                  24798568.680
        30.750
   1133336.57948    866589.77047  20766101.9064   20766099.5784
        50.5004         42.5004
   -222297.99746   -158442.62243  24901941.5864   24901938.9104
        39.5004         20.5004
   1377808.231 6                  25472229.594
        38.750
    -34198.79648     -7213.08246  20454890.6484   20454888.8594
        50.0004         40.0004
 12  3 16 13 29 52.0000000  0 11G02G07G08G15G18G29G10G05G21G04G26
   1505353.42648   1143507.98645  21880924.9924   21880922.0704
        48.5004         34.2504
    759535.63546    587854.64843  24798153.2344   24798152.8404
        36.2504         18.2504
     57856.85046     59267.15743  24571904.3984   24571902.9694
        38.7504         21.0004
   -502147.19747   -359831.94645  22686012.0704   22686010.7304
        47.0004         33.5004
    599605.078 5                  25642236.781
        32.250
    592673.21148    463336.09346  21211234.4144   21211232.3244
        50.5004         40.2504
   1642128.870 5                  24799194.930
        30.500
   1134705.38748    867656.37547  20766362.2584   20766359.8634
        50.5004         42.2504
   -225391.71946   -160853.31743  24901353.1484   24901349.8914
        40.0004         20.5004
   1381131.445 6                  25472861.781
        38.500
    -36161.06248     -8742.11746  20454517.4304   20454515.2074
        50.0004         40.2504
 12  3 16 13 29 53.0000000  0 11G02G07G08G15G18G29G10G05G21G04G26
   1507876.09748   1145473.70645  21881405.3594   21881402.4414
        48.2504         34.0004
    759857.82646    588105.71143  24798214.0554   24798213.8594
        36.7504         18.5004
     56151.51046     57938.32243  24571579.6174   24571578.5514
        39.2504         21.0004
   -505606.61147   -362527.58545  22685354.1884   22685352.2424
        47.0004         33.5004
    596810.008 5                  25641703.734
        32.000
    592523.94248    463219.78646  21211206.2504   21211203.9104
        51.0004         40.2504
   1645429.327 5                  24799823.258
        30.000
   1136074.56348    868723.26347  20766622.9694   20766620.5704
        50.0004         42.2504
   -228485.37246   -163263.96143  24900764.0864   24900760.9064
        39.7504         21.0004
   1384454.742 6                  25473494.422
        37.250
    -38122.57048    -10270.56546  20454144.4924   20454142.0984
        50.5004         40.2504
 12  3 16 13 29 54.0000000  0 11G02G07G08G15G18G29G10G05G21G04G26
   1510399.34148   1147439.86745  21881885.6644   21881882.2624
        48.2504         34.2504
    760180.80445    588357.36943  24798276.5234   24798275.8634
        35.7504         18.2504
     54446.80146     56609.99243  24571254.6334   24571253.8984
        39.7504         21.2504
   -509065.51547   -365222.82945  22684696.1254   22684694.4224
        47.0004         33.0004
    594015.170 5                  25641172.281
        32.500
    592375.55648    463104.15846  21211178.1094   21211175.4184
        50.5004         40.2504
   1648729.954 4                  24800451.211
        28.250
   1137444.27948    869790.57347  20766883.8284   20766881.3244
        50.5004         42.2504
   -231578.85446   -165674.45143  24900175.1804   24900172.6094
        39.0004         21.2504
   1387778.318 6                  25474126.742
        37.500
    -40083.15048    -11798.29046  20453771.5784   20453769.2034
        50.5004         40.0004
 12  3 16 13 29 55.0000000  0 11G02G07G08G15G18G29G10G05G21G04G26
   1512922.57748   1149406.01645  21882365.5634   21882362.0394
        48.2504         34.7504
    760503.99446    588609.19743  24798337.3364   24798337.1994
        36.2504         18.2504
     52742.15046     55281.70743  24570930.0704   24570929.6804
        39.5004         21.5004
   -512524.50947   -367918.14945  22684037.7034   22684036.1174
        46.7504         33.0004
    591220.071 5                  25640640.766
        32.000
    592227.47248    462988.76046  21211149.8054   21211147.1134
        51.0004         40.2504
   1652030.178 4                  24801079.023
        28.500
   1138813.92248    870857.82747  20767144.2344   20767142.0864
        50.5004         42.2504
   -234672.75046   -168085.30243  24899586.7114   24899583.7234
        38.7504         21.2504
   1391101.593 6                  25474758.656
        37.000
    -42043.41848    -13325.76646  20453398.4614   20453395.9454
        50.7504         40.5004
 12  3 16 13 29 56.0000000  0 11G02G07G08G15G18G29G10G05G21G04G26
   1515446.54948   1151372.74345  21882845.9774   21882842.7344
        48.2504         34.2504
    760828.20046    588861.82342  24798399.0164   24798399.0204
        36.5004         17.7504
     51038.36846     53954.07943  24570606.1024   24570605.1484
        39.7504         21.5004
   -515982.82247   -370612.93745  22683379.7814   22683378.0944
        46.7504         33.0004
    588425.399 5                  25640107.570
        31.750
    592080.43648    462874.18746  21211121.8754   21211119.3324
        51.2504         40.2504
   1655330.892 4                  24801707.688
        29.750
   1140184.27248    871925.63347  20767404.9924   20767402.6094
        51.0004         42.5004
   -237766.28946   -170495.85943  24898997.8984   24898995.1414
        39.5004         21.0004
   1394425.350 6                  25475391.188
        38.000
    -44002.58248    -14852.39446  20453025.8134   20453023.3284
        51.0004         40.5004
 12  3 16 13 29 57.0000000  0 11G02G07G08G15G18G29G10G05G21G04G26
   1517970.98948   1153339.83545  21883326.2734   21883323.0944
        48.0004         34.0004
    761153.09746    589115.01642  24798461.5234   24798460.4224
        36.5004         17.7504
     49335.06346     52626.83543  24570282.2274   24570281.4024
        40.0004         21.5004
   -519440.75647   -373307.43545  22682721.8594   22682720.0044
        46.7504         32.7504
    585630.836 5                  25639575.063
        30.500
    591934.16248    462760.20846  21211094.1094   21211091.6764
        50.2504         40.5004
   1658631.489 4                  24802335.430
        29.500
   1141555.00648    872993.73647  20767665.9844   20767663.7074
        50.5004         42.5004
   -240859.73546   -172906.32643  24898409.6804   24898406.6214
        38.2504         21.0004
   1397749.220 6                  25476024.539
        38.250
    -45960.93148    -16378.38146  20452653.0164   20452650.7114
        50.7504         40.5004
 12  3 16 13 29 58.0000000  0 11G02G07G08G15G18G29G10G05G21G04G26
   1520495.48647   1155306.97345  21883806.3204   21883803.6604
        47.7504         34.2504
    761478.26646    589368.36542  24798522.9144   24798522.5434
        36.7504         17.7504
     47631.95446     51299.73143  24569957.6804   24569957.1844
        41.0004         21.5004
   -522898.68847   -376001.92545  22682063.4534   22682062.0164
        47.0004         32.7504
    582836.122 5                  25639042.219
        30.250
    591788.28348    462646.53346  21211066.0704   21211063.6054
        50.7504         40.5004
   1661931.950 4                  24802964.703
        29.250
   1142925.79248    874061.88647  20767926.9454   20767924.7274
        50.2504         42.7504
   -243953.47646   -175317.03143  24897820.6024   24897817.6484
        38.5004         20.7504
   1401072.920 6                  25476656.570
        38.000
    -47918.86448    -17904.04746  20452280.1414   20452278.0234
        51.0004         40.5004
 12  3 16 13 29 59.0000000  0 11G02G07G08G15G18G29G10G05G21G04G26
   1523020.17147   1157274.25445  21884286.8674   21884283.9884
        47.7504         34.0004
    761803.92446    589622.13542  24798584.5864   24798584.4024
        36.5004         17.7504
     45929.07746     49972.81343  24569634.0004   24569633.3404
        40.7504         21.5004
   -526356.50747   -378696.33145  22681405.7664   22681403.9574
        46.7504         33.0004
    580041.253 5                  25638510.023
        30.000
    591642.89148    462533.24546  21211038.7894   21211035.7974
        50.5004         40.5004
   1665232.093 4                  24803591.672
        29.500
   1144296.69648    875130.12147  20768187.7584   20768185.6484
        50.0004         42.7504
   -247047.43546   -177727.92143  24897231.9144   24897228.7234
        38.5004         20.7504
   1404396.469 6                  25477289.117
        37.000
    -49876.28048    -19429.30946  20451907.8054   20451905.3524
        51.0004         40.5004
 12  3 16 13 30  0.0000000  0 11G02G07G08G15G18G29G10G05G21G04G26
   1525546.11748   1159242.52845  21884767.7734   21884764.4574
        48.5004         34.0004
    762131.05046    589877.04142  24798646.8914   24798646.5744
        37.2504         17.7504
     44227.58346     48646.97443  24569309.6174   24569309.3054
        41.2504         21.5004
   -529813.13847   -381389.79645  22680748.0394   22680745.9964
        47.2504         33.5004
    577247.411 4                  25637978.117
        29.250
    591499.05248    462421.16346  21211011.1334   21211008.7194
        50.7504         40.5004
   1668533.188 5                  24804219.141
        31.000
   1145668.81448    876199.30447  20768448.7424   20768446.7894
        50.0004         42.7504
   -250140.53546   -180138.13143  24896643.9844   24896639.8794
        38.7504         20.7504
   1407721.044 6                  25477922.914
        36.250
    -51832.07648    -20953.30546  20451535.8364   20451533.5514
        51.0004         40.7504
 12  3 16 13 30  1.0000000  0 11G02G07G08G15G18G29G10G05G21G04G26
   1528071.49148   1161210.33945  21885248.5554   21885245.2274
        48.2504         34.5004
    762457.82646    590131.65443  24798709.7034   24798708.7814
        38.0004         18.2504
     42525.55546     47320.72343  24568986.2734   24568985.6024
        40.5004         21.0004
   -533270.41647   -384083.77345  22680089.8984   22680088.3284
        47.0004         33.2504
    574452.641 4                  25637446.016
        28.500
    591354.96948    462308.88846  21210983.7274   21210981.1024
        50.7504         40.5004
   1671833.308 5                  24804846.617
        31.000
   1147040.31348    877268.00347  20768709.7034   20768707.6334
        50.0004         42.5004
   -253234.58246   -182549.08943  24896054.5704   24896051.4304
        39.0004         21.0004
   1411044.715 6                  25478554.391
        36.750
    -53788.11548    -22477.48946  20451163.3204   20451160.8134
        50.7504         40.7504
 12  3 16 13 30  2.0000000  0 11G02G07G08G15G18G29G10G05G21G04G26
   1530601.24848   1163181.57345  21885729.8204   21885726.4064
        48.2504         34.0004
    762789.25546    590389.91943  24798773.3134   24798771.4924
        37.2504         18.2504
     40828.02646     45997.96143  24568662.8364   24568662.5984
        40.5004         21.0004
   -536723.35447   -386774.37845  22679432.7894   22679430.9734
        47.0004         33.2504
    571661.972 4                  25636914.438
        28.250
    591215.60448    462200.29446  21210957.1484   21210954.6374
        51.0004         40.5004
   1675137.436 4                  24805476.508
        29.750
   1148416.17948    878340.11247  20768971.7734   20768969.2854
        50.0004         42.2504
   -256324.58346   -184956.86643  24895466.6724   24895463.3834
        39.2504         21.2504
   1414372.550 5                  25479187.547
        35.750
    -55739.39448    -23997.96646  20450792.0234   20450789.6564
        51.2504         40.7504
 12  3 16 13 30  3.0000000  0 11G02G07G08G15G18G29G10G05G21G04G26
   1533127.30848   1165149.92745  21886210.5084   21886206.9654
        48.2504         34.0004
    763117.19346    590645.44143  24798835.5164   24798833.9964
        36.7504         18.2504
     39126.86746     44672.39743  24568339.0944   24568339.0204
        40.7504         21.5004
   -540180.07147   -389467.92345  22678774.9924   22678773.0704
        46.7504         33.0004
    568867.333 4                  25636384.344
        28.250
    591072.84848    462089.06246  21210930.1334   21210927.5904
        50.5004         40.5004
   1678437.492 4                  24806105.758
        28.500
   1149788.27848    879409.27447  20769232.6174   20769230.3914
        50.0004         42.0004
   -259418.71846   -187367.87943  24894877.6724   24894874.5634
        39.0004         21.2504
   1417696.320 6                  25479820.625
        36.000
    -57694.02948    -25521.05446  20450420.3204   20450417.6094
        50.7504         40.7504
 12  3 16 13 30  4.0000000  0 11G02G07G08G15G18G29G10G05G21G04G26
   1535653.99047   1167118.76945  21886691.2424   21886688.1254
        47.5004         34.0004
    763446.07145    590901.70443  24798898.1644   24798896.6214
        35.7504         18.2504
     37426.40646     43347.38343  24568015.8524   24568015.6294
        40.7504         20.7504
   -543636.24047   -392161.04245  22678117.1884   22678115.1684
        46.5004         32.7504
    566073.024 4                  25635852.523
        29.500
    590931.00748    461978.53346  21210903.0634   21210900.6604
        50.5004         40.0004
   1681737.788 4                  24806733.492
        29.250
   1151160.94948    880478.89047  20769493.9224   20769491.2854
        50.2504         42.0004
   -262512.58246   -189778.68643  24894289.3524   24894286.1094
        39.7504         21.2504
   1421020.421 6                  25480453.453
        36.750
    -59647.70248    -27043.38746  20450048.3054   20450046.2624
        51.0004         41.0004
 12  3 16 13 30  5.0000000  0 11G02G07G08G15G18G29G10G05G21G04G26
   1538181.21347   1169088.03745  21887171.8524   21887169.2384
        47.0004         34.0004
    763775.69745    591158.55543  24798960.0704   24798959.1684
        35.7504         18.5004
     35726.56346     42022.83243  24567691.6254   24567691.7584
        40.0004         21.0004
   -547091.93447   -394853.78845  22677459.7584   22677457.3054
        46.5004         33.0004
    563278.959 4                  25635320.938
        29.250
    590790.02748    461868.67646  21210876.0634   21210873.5234
        50.7504         40.0004
   1685038.308 4                  24807361.344
        29.250
   1152534.13748    881548.90447  20769755.2664   20769752.7544
        50.0004         42.2504
   -265606.26846   -192189.36243  24893701.0234   24893697.5314
        39.5004         21.5004
   1424344.82046   1142765.58653  25481084.8914   25481081.1094
        37.5004         19.2504
    -61600.47948    -28565.03346  20449676.5394   20449674.5634
        51.2504         41.0004
 12  3 16 13 30  6.0000000  0 11G02G07G08G15G18G29G10G05G21G04G26
   1540708.44347   1171057.30845  21887653.0704   21887649.9774
        47.2504         34.2504
    764105.56846    591415.58843  24799023.8134   24799021.6054
        36.7504         18.5004
     34026.84046     40698.35343  24567368.5234   24567368.5664
        40.5004         20.7504
   -550547.69647   -397546.58745  22676802.2344   22676799.5824
        46.2504         32.5004
    560484.592 4                  25634787.305
        29.750
    590649.36248    461759.07246  21210849.5704   21210846.7504
        50.7504         40.5004
   1688338.386 4                  24807990.344
        29.750
   1153907.26648    882618.87847  20770016.6724   20770014.0124
        50.2504         42.2504
   -268700.36946   -194600.36043  24893111.0864   24893108.0824
        39.0004         21.5004
   1427668.94846   1145355.77943  25481717.7344   25481714.4454
        37.7504         19.0004
    -63552.89348    -30086.39546  20449305.3674   20449302.9144
        51.7504         40.7504
 12  3 16 13 30  7.0000000  0 11G02G07G08G15G18G29G10G05G21G04G26
   1543236.45647   1173027.19145  21888134.3054   21888130.8554
        47.0004         34.2504
