     2.11           OBSERVATION DATA    G (GPS)             RINEX VERSION / TYPE
teqc  2012Jan19                         20120316 17:19:26UTCPGM / RUN BY / DATE
OSX ker:10.8.0|Core 2 Duo|gcc 4.2 -m64|OSX ker:10.8.0+|=+   COMMENT
BIT 2 OF LLI FLAGS DATA COLLECTED UNDER A/S CONDITION       COMMENT
CREF0001                                                    MARKER NAME
0001                                                        MARKER NUMBER
-Unknown-           -Unknown-                               OBSERVER / AGENCY
4435237655          TRIMBLE NETRS       1.1-2               REC # / TYPE / VERS
00000000            TRM41249.00     NONE                    ANT # / TYPE
  1529215.69    -4465715.78   4275065.55                    APPROX POSITION XYZ
        0.0000        0.0000        0.0000                  ANTENNA: DELTA H/E/N
     1     1                                                WAVELENGTH FACT L1/2
     7    L1    L2    C1    P2    P1    S1    S2            # / TYPES OF OBSERV
    15                                                      LEAP SECONDS
 SNR is mapped to RINEX snr flag value [0-9]                COMMENT
  L1 & L2: min(max(int(snr_dBHz/6), 0), 9)                  COMMENT
  2012     3    16    13    23   50.0000000     GPS         TIME OF FIRST OBS
                                                            END OF HEADER
 12  3 16 13 23 50.0000000  0  2G05G07
     43947.71158     14335.30557  22941255.3364   22941253.1604
        50.0004         43.2504
      7288.16056     -1352.66053  27048705.2664   27048704.9494
        41.2504         20.7504
 12  3 16 13 23 51.0000000  0  2G05G07
     45323.30548     15407.19547  22941517.5704   22941515.1914
        50.2504         42.7504
      7515.76646     -1175.29343  27048748.4924   27048747.8164
        39.7504         21.0004
 12  3 16 13 23 52.0000000  0  2G05G07
     46698.84848     16479.04347  22941778.8914   22941776.7934
        50.2504         42.5004
      7743.46946      -997.83643  27048792.1174   27048791.0784
        40.2504         20.5004
 12  3 16 13 23 53.0000000  0  2G05G07
     48074.31348     17550.82847  22942040.6024   22942038.7274
        50.7504         42.5004
      7971.44547      -820.17243  27048835.4064   27048834.7664
        42.2504         20.2504
 12  3 16 13 23 54.0000000  0  2G05G07
     49449.81648     18622.64147  22942302.5084   22942300.3014
        50.7504         42.5004
      8199.73047      -642.28143  27048878.8284   27048878.3484
        42.2504         20.2504
 12  3 16 13 23 55.0000000  0  2G05G07
     50825.27348     19694.42647  22942564.4924   22942561.9694
        51.0004         42.2504
      8428.27347      -464.20743  27048922.2034   27048922.0354
        44.7504         21.5004
 12  3 16 13 23 56.0000000  0  2G05G07
     52200.85248     20766.30547  22942826.1174   22942823.5514
        50.7504         42.2504
      8657.17647      -285.85243  27048966.2034   27048965.4384
        44.0004         21.5004
 12  3 16 13 23 57.0000000  0  2G05G07
     53576.38748     21838.15247  22943087.6254   22943085.5354
        51.2504         42.2504
      8886.30946      -107.28943  27049010.0704   27049009.1214
        40.2504         21.5004
 12  3 16 13 23 58.0000000  0  2G05G07
     54951.94148     22910.01247  22943349.4694   22943346.9494
        51.2504         42.5004
      9115.72746        71.46943  27049052.8984   27049053.2504
        40.5004         21.0004
 12  3 16 13 23 59.0000000  0  2G05G07
     56327.53548     23981.89847  22943611.2664   22943608.9804
        51.0004         42.7504
      9345.46946       250.45343  27049097.1724   27049096.7704
        41.5004         20.7504
 12  3 16 13 24  0.0000000  0  2G05G07
     57703.25448     25053.88747  22943873.0474   22943871.0704
        51.5004         43.0004
      9575.57046       429.71943  27049140.9144   27049140.4614
        41.0004         20.7504
 12  3 16 13 24  1.0000000  0  2G05G07
     59078.93048     26125.84447  22944134.9304   22944132.6334
        51.7504         42.5004
      9805.95346       609.23843  27049183.9454   27049184.3324
        39.7504         20.2504
 12  3 16 13 24  2.0000000  0  2G05G07
     60454.62948     27197.81347  22944396.4924   22944394.1994
        52.0004         42.5004
     10036.57846       788.93843  27049228.0634   27049228.1524
        39.0004         19.7504
 12  3 16 13 24  3.0000000  0  2G05G07
     61830.39548     28269.83647  22944658.1884   22944656.0864
        51.5004         42.5004
     10267.55946       968.94143  27049273.0164   27049272.3404
        39.5004         19.7504
 12  3 16 13 24  4.0000000  0  2G05G07
     63206.33248     29341.99647  22944920.2344   22944917.8984
        51.5004         42.5004
     10498.99246      1149.29743  27049316.7274   27049316.0044
        39.0004         19.2504
 12  3 16 13 24  5.0000000  0  2G05G07
     64582.30948     30414.18847  22945181.8444   22945179.6524
        51.5004         42.5004
     10730.69946      1329.85243  27049360.3134   27049360.1684
        39.5004         19.0004
 12  3 16 13 24  6.0000000  0  2G05G07
     65958.41448     31486.48047  22945443.7344   22945441.4804
        51.2504         43.0004
     10962.82046      1510.72743  27049403.8444   27049404.2974
        40.2504         19.0004
 12  3 16 13 24  7.0000000  0  2G05G07
     67334.54748     32558.78947  22945705.7274   22945703.8674
        51.0004         43.0004
     11195.25446      1691.81343  27049448.7194   27049448.8984
        39.7504         18.5004
 12  3 16 13 24  8.0000000  0  4G29G05G26G07
     -9886.20758    -10443.43756  23494186.8444   23494184.8324
        50.7504         40.7504
     68710.78548     33631.18447  22945967.5704   22945965.7074
        50.5004         42.7504
    -81296.82858    -52484.48056  22856435.9774   22856434.0554
        51.0004         39.7504
     11428.05946      1873.21143  27049493.5314   27049492.9104
        40.2504         18.5004
 12  3 16 13 24  9.0000000  0  4G29G05G26G07
    -10147.71948    -10647.20746  23494137.1884   23494135.3054
        51.0004         40.5004
     70087.03148     34703.58247  22946229.6564   22946227.5474
        51.0004         42.7504
    -83379.19948    -54107.10246  22856039.3834   22856037.8634
        50.7504         40.2504
     11661.10246      2054.82443  27049537.5314   27049537.5634
        40.7504         18.5004
 12  3 16 13 24 10.0000000  0  4G29G05G26G07
    -10408.72748    -10850.58646  23494087.2504   23494085.4774
        51.0004         40.5004
     71463.44948     35776.11347  22946491.6024   22946489.2304
        51.0004         42.7504
    -85461.05148    -55729.32846  22855643.2034   22855641.9414
        50.7504         40.0004
     11894.69146      2236.85243  27049581.8284   27049581.9454
        41.0004         19.0004
 12  3 16 13 24 11.0000000  0  4G29G05G26G07
    685991.88948    531799.24146  21228267.8594   21228266.5004
        50.5004         40.5004
    769513.54848    579711.25947  20680986.3364   20680984.0084
        50.7504         42.7504
    609104.97248    485490.95846  20589475.0084   20589473.3134
        50.7504         40.0004
    708793.50347    545274.87543  24783857.5944   24783857.6524
        42.0004         19.0004
 12  3 16 13 24 12.0000000  0  4G29G05G26G07
    685616.12648    531506.43846  21228196.2664   21228195.0984
        49.5004         40.2504
    770774.50448    580693.82347  20681226.2344   20681224.2854
        50.7504         42.7504
    606908.38148    483779.32746  20589057.2504   20589055.6844
        50.5004         39.7504
    708912.11947    545367.31443  24783880.4224   24783879.7424
        42.0004         19.0004
 12  3 16 13 24 13.0000000  0  5G02G29G05G26G07
    785447.27558    593260.83756  21722091.3364   21722087.6684
        49.2504         36.0004
    685242.44048    531215.25446  21228125.2344   21228123.6724
        49.5004         40.0004
    772037.24048    581677.76847  20681466.3364   20681464.2034
        51.0004         42.5004
    604713.91348    482069.35046  20588639.3914   20588637.9304
        50.2504         39.7504
    709032.76846    545461.35743  24783902.8984   24783903.2584
        41.5004         19.0004
 12  3 16 13 24 14.0000000  0  5G02G29G05G26G07
    787850.45648    595133.43946  21722548.4534   21722544.7154
        49.0004         36.0004
    684870.33548    530925.30146  21228054.4144   21228052.9414
        49.2504         40.2504
    773301.19048    582662.66347  20681706.9924   20681704.9184
        50.7504         42.5004
    602520.99548    480360.58446  20588222.1414   20588220.7234
        50.0004         40.0004
    709154.92147    545556.51343  24783926.3834   24783926.2504
        42.2504         19.2504
 12  3 16 13 24 15.0000000  0  5G02G29G05G26G07
    790252.60148    597005.23645  21723005.5004   21723002.1094
        48.7504         35.5004
    684497.49948    530634.77046  21227984.1644   21227981.8834
        50.0004         40.5004
    774564.10448    583646.75447  20681947.8524   20681945.3404
        50.5004         42.5004
    600327.37048    478651.26846  20587804.8594   20587802.8484
        50.5004         40.0004
    709276.34746    545651.11943  24783949.4774   24783949.2704
        37.7504         19.0004
 12  3 16 13 24 16.0000000  0  5G02G29G05G26G07
    792655.31248    598877.47145  21723462.7974   21723459.1844
        48.5004         35.2504
    684125.49148    530344.89546  21227913.0314   21227911.0234
        50.2504         40.7504
    775827.49548    584631.20747  20682187.9924   20682185.8444
        50.7504         42.5004
    598134.63148    476942.63546  20587387.2114   20587385.9104
        50.5004         39.7504
    709398.44845    545746.31143  24783972.0634   24783972.8134
        34.2504         18.5004
 12  3 16 13 24 17.0000000  0  5G02G29G05G26G07
    795057.87148    600749.59445  21723920.0394   21723916.5204
        48.5004         35.2504
    683753.66748    530055.15046  21227842.4144   21227840.5124
        50.7504         40.7504
    777090.72248    585615.54447  20682428.6024   20682426.3204
        51.5004         42.5004
    595942.04548    475234.12946  20586969.8674   20586968.5634
        50.7504         39.7504
    709520.76945    545841.69543  24783996.0394   24783995.4884
        34.5004         18.2504
 12  3 16 13 24 18.0000000  0  5G02G29G05G26G07
    797460.98048    602622.14745  21724377.3524   21724373.8914
        48.5004         35.5004
    683382.69048    529766.09046  21227771.7894   21227769.9964
        51.0004         40.5004
    778354.47248    586600.27747  20682668.6724   20682666.5554
        50.7504         42.5004
    593750.33848    473526.30646  20586552.9534   20586551.5514
        50.5004         39.5004
    709643.77646    545937.50643  24784019.4224   24784019.2384
        37.0004         18.2504
 12  3 16 13 24 19.0000000  0  5G02G29G05G26G07
    799864.45448    604494.98445  21724834.4534   21724831.3284
        48.2504         35.5004
    683012.33648    529477.50146  21227701.2504   21227699.9064
        50.5004         40.7504
    779618.52848    587585.26347  20682909.3444   20682907.4574
        51.0004         42.5004
    591559.28448    471818.99546  20586136.2344   20586134.7774
        50.7504         39.5004
    709767.40746    546033.80442  24784042.0394   24784042.2734
        37.0004         17.7504
 12  3 16 13 24 20.0000000  0  7G08G02G29G05G15G26G07
    641188.07156    510983.75553  24684092.8834   24684094.3794
        40.2504         20.7504
    802265.00048    606365.53246  21725291.2114   21725287.9574
        48.2504         36.0004
    682639.38148    529186.88046  21227630.4454   21227628.5004
        50.5004         40.5004
    780879.63248    588567.93147  20683149.2894   20683147.2854
        51.0004         42.5004
    600097.21457    475638.54155  22907433.9534   22907433.7664
        44.5004         32.7504
    589365.61848    470109.63646  20585718.2974   20585717.3164
        50.2504         39.5004
    709888.29646    546128.00042  24784065.2424   24784065.6724
        36.5004         17.2504
 12  3 16 13 24 21.0000000  0  7G08G02G29G05G15G26G07
    639344.64746    509547.33143  24683741.7504   24683743.4264
        40.0004         20.7504
    804669.60348    608239.24845  21725749.0084   21725745.7344
        49.0004         35.7504
    682270.77748    528899.65946  21227560.2734   21227558.3714
        50.7504         40.5004
    782144.75148    589553.73847  20683390.1884   20683387.8164
        51.0004         42.5004
    596549.30547    472873.94845  22906758.8364   22906758.8874
        44.5004         32.5004
    587176.34248    468403.71146  20585301.9144   20585300.6724
        50.7504         39.5004
    710013.54346    546225.57942  24784090.1094   24784089.3954
        36.7504         17.2504
 12  3 16 13 24 22.0000000  0  7G08G02G29G05G15G26G07
    637501.10446    508110.82543  24683392.1884   24683392.5044
        40.5004         20.5004
    807074.00748    610112.80245  21726206.6414   21726203.6564
        48.2504         35.7504
    681902.27748    528612.51346  21227490.0704   21227488.3524
        50.5004         40.7504
    783409.62348    590539.35047  20683630.9534   20683628.6484
        50.7504         42.5004
    593001.10747    470109.12345  22906083.1804   22906083.7234
        44.0004         32.5004
    584987.13248    466697.83146  20584885.3284   20584883.8754
        50.7504         39.5004
    710138.71646    546323.13342  24784114.1024   24784113.1524
        38.2504         17.7504
 12  3 16 13 24 23.0000000  0  7G08G02G29G05G15G26G07
    635658.10346    506674.74643  24683040.7504   24683041.9494
        40.0004         20.5004
    809478.91648    611986.75445  21726664.3984   21726661.0004
        48.2504         35.5004
    681534.58148    528326.00446  21227419.5784   21227418.3324
        50.2504         40.7504
    784675.00548    591525.37247  20683871.4224   20683869.4144
        51.0004         42.7504
    589453.29747    467344.59845  22905407.6484   22905408.4414
        43.2504         33.0004
    582798.79148    464992.63446  20584468.8444   20584467.7504
        50.5004         39.7504
    710264.72346    546421.27242  24784137.3524   24784137.2624
        39.7504         17.2504
 12  3 16 13 24 24.0000000  0  7G08G02G29G05G15G26G07
    633815.44546    505238.92643  24682689.9064   24682691.3164
        39.5004         20.5004
    811884.12648    613860.94645  21727121.5164   21727118.1684
        48.5004         35.7504
    681167.47048    528039.94346  21227349.7424   21227348.5394
        50.5004         40.5004
    785940.60948    592511.55747  20684112.1564   20684110.1414
        51.0004         42.7504
    585905.65547    464580.20045  22904733.2894   22904733.3054
        43.7504         32.7504
    580611.03148    463287.87746  20584052.8364   20584051.2114
        51.0004         39.7504
    710391.21346    546519.82742  24784161.8674   24784160.9844
        39.7504         17.2504
 12  3 16 13 24 25.0000000  0  7G08G02G29G05G15G26G07
    631973.33646    503803.54543  24682339.1564   24682340.4924
        40.5004         20.2504
    814289.84948    615735.53845  21727579.9534   21727576.4064
        48.5004         35.7504
    680801.16648    527754.51146  21227279.8594   21227278.5704
        50.5004         40.5004
    787206.69248    593498.11747  20684353.4064   20684351.0394
        50.7504         42.5004
    582358.43247    461816.13245  22904057.7814   22904057.7504
        43.5004         33.0004
    578424.11748    461583.79346  20583636.6564   20583635.1884
        51.0004         39.7504
    710518.47146    546619.01342  24784186.2424   24784185.4454
        39.7504         17.2504
 12  3 16 13 24 26.0000000  0  7G08G02G29G05G15G26G07
    630131.68246    502368.47443  24681989.0944   24681990.4264
        40.5004         20.5004
    816695.99648    617610.45546  21728037.7734   21728034.0554
        49.0004         36.2504
    680435.59748    527469.65046  21227210.5704   21227209.0554
        50.5004         40.5004
    788473.16648    594484.97647  20684594.4224   20684592.2074
        51.5004         42.7504
    578811.51247    459052.29545  22903383.5004   22903383.1374
        44.0004         32.0004
    576237.90848    459880.24946  20583221.2114   20583219.3634
        51.0004         40.0004
    710646.36046    546718.64942  24784210.3284   24784209.7034
        40.0004         17.2504
 12  3 16 13 24 27.0000000  0  7G08G02G29G05G15G26G07
    628290.07346    500933.43943  24681638.4694   24681639.4414
        40.7504         20.5004
    819102.14948    619485.37346  21728495.4924   21728492.2274
        48.5004         36.0004
    680070.33248    527185.02546  21227141.2114   21227139.4064
        50.0004         40.5004
    789739.57748    595471.79247  20684835.3444   20684833.1414
        51.0004         42.7504
    575264.49047    456288.38045  22902708.4844   22902707.9304
        43.7504         33.0004
    574052.03848    458176.97946  20582805.0084   20582802.9844
        51.0004         40.0004
    710774.52546    546818.52742  24784234.9454   24784233.6254
        39.0004         16.7504
 12  3 16 13 24 28.0000000  0  7G08G02G29G05G15G26G07
    626449.02846    499498.85343  24681287.8834   24681289.3054
        40.5004         20.2504
    821508.78748    621360.67146  21728953.6094   21728949.9924
        48.7504         36.5004
    679705.84148    526900.99846  21227071.9304   21227070.1254
        50.0004         40.2504
    791006.46648    596458.97747  20685076.5784   20685074.4144
        51.2504         42.7504
    571717.87747    453524.78745  22902033.7814   22902033.0864
        43.5004         32.2504
    571866.96448    456474.32746  20582388.9384   20582387.4534
        51.2504         40.0004
    710903.39346    546918.93842  24784259.7194   24784258.4774
        38.5004         16.7504
 12  3 16 13 24 29.0000000  0  7G08G02G29G05G15G26G07
    624608.36146    498064.56443  24680938.3834   24680938.8204
        40.7504         20.2504
    823915.80448    623236.26546  21729411.7974   21729408.2464
        48.7504         36.5004
    679342.05348    526617.53346  21227002.9844   21227000.7114
        50.0004         40.2504
    792273.67848    597446.41047  20685317.5084   20685315.2624
        51.2504         42.7504
    568171.51547    450761.39245  22901358.4224   22901358.1954
        43.5004         32.0004
    569682.59448    454772.22146  20581973.5474   20581972.0234
        50.7504         39.5004
    711032.90246    547019.89142  24784283.6094   24784283.1564
        38.5004         17.2504
 12  3 16 13 24 30.0000000  0  7G08G02G29G05G15G26G07
    622767.91746    496630.44943  24680588.0394   24680588.7464
        40.7504         20.0004
    826322.95448    625111.96745  21729869.5554   21729866.1914
        48.7504         35.5004
    678978.67248    526334.37646  21226933.7194   21226931.6374
        50.2504         40.0004
    793540.99648    598433.92947  20685558.6094   20685556.5354
        51.2504         42.7504
    564625.19647    447998.02845  22900683.3134   22900683.1134
        44.0004         32.0004
    567498.67448    453070.45846  20581558.1094   20581556.2934
        51.2504         40.0004
    711162.75946    547121.04642  24784308.8984   24784307.7584
        38.2504         17.2504
 12  3 16 13 24 31.0000000  0  7G08G02G29G05G15G26G07
    620928.23046    495196.94143  24680237.8204   24680238.9184
        41.2504         19.7504
    828730.88548    626988.27545  21730327.7504   21730324.1484
        49.0004         35.5004
    678616.38048    526052.07446  21226864.5634   21226863.0044
        50.2504         40.5004
    794809.04848    599422.01847  20685799.8914   20685797.9694
        51.0004         43.0004
    561079.51447    445235.15545  22900008.7114   22900008.5744
        44.5004         32.2504
    565315.83548    451369.54346  20581142.4224   20581140.9064
        51.5004         39.7504
    711293.61646    547223.03342  24784333.7504   24784332.8014
        38.5004         17.2504
 12  3 16 13 24 32.0000000  0  7G08G02G29G05G15G26G07
    619088.98046    493763.76443  24679887.3984   24679888.7814
        41.5004         20.2504
    831139.15948    628864.84845  21730785.8054   21730782.4534
        49.0004         35.2504
    678254.73948    525770.26846  21226795.9694   21226793.6724
        51.0004         40.2504
    796077.39248    600410.33747  20686041.2424   20686038.9924
        50.5004         43.0004
    557534.07247    442472.47945  22899333.7194   22899333.7664
        44.2504         32.0004
    563133.63548    449669.12846  20580727.1804   20580725.3404
        51.5004         39.7504
    711425.06546    547325.43942  24784358.0864   24784357.3754
        39.7504         16.7504
 12  3 16 13 24 33.0000000  0  7G08G02G29G05G15G26G07
    617249.75446    492330.60043  24679538.0084   24679538.8094
        40.7504         20.5004
    833547.43348    630741.42345  21731244.3364   21731240.7344
        49.0004         35.5004
    677893.38848    525488.70246  21226726.9844   21226725.3484
        50.7504         40.2504
    797345.72148    601398.64647  20686282.5394   20686280.6844
        51.0004         43.0004
    553988.57647    439709.76045  22898659.0944   22898659.1334
        44.5004         32.2504
    560951.78848    447968.98346  20580311.6884   20580310.2274
        51.2504         40.2504
    711556.76546    547428.02942  24784383.3284   24784382.5314
        39.7504         16.7504
 12  3 16 13 24 34.0000000  0  7G08G02G29G05G15G26G07
    615411.18246    490897.96043  24679187.5944   24679188.5944
        41.0004         21.2504
    835956.31948    632618.47845  21731702.9614   21731699.5474
        48.5004         35.5004
    677532.94148    525207.83546  21226658.3364   21226656.7624
        50.7504         40.0004
    798614.61048    602387.39347  20686524.2504   20686522.1524
        51.5004         43.2504
    550443.51647    436947.38145  22897985.1954   22897984.4964
        44.2504         32.2504
    558770.84548    446269.54646  20579896.6724   20579895.2344
        51.2504         40.2504
    711689.29446    547531.29842  24784409.0554   24784407.5744
        39.5004         16.7504
 12  3 16 13 24 35.0000000  0  7G08G02G29G05G15G26G07
    613573.14146    489465.73743  24678837.7584   24678839.2034
        40.7504         20.2504
    838365.68048    634495.90045  21732161.6884   21732157.8674
        48.2504         35.5004
    677173.26748    524927.56546  21226589.7814   21226588.2934
        50.5004         40.0004
    799883.94448    603376.48747  20686765.6024   20686763.6524
        50.7504         43.0004
    546898.88147    434185.34245  22897310.3914   22897310.1294
        44.5004         32.2504
    556590.69048    444570.72546  20579481.6334   20579480.2114
        51.0004         40.2504
    711822.50346    547635.14242  24784434.0474   24784433.0864
        39.7504         17.2504
 12  3 16 13 24 36.0000000  0  7G08G02G29G05G15G26G07
    611735.34146    488033.69543  24678488.5394   24678489.7034
        40.5004         20.2504
    840775.27648    636373.51145  21732619.6094   21732616.5354
        48.2504         35.5004
    676814.13248    524647.72746  21226521.7734   21226520.0514
        50.0004         40.5004
    801153.44648    604365.71147  20687007.1484   20687005.3094
        50.7504         43.0004
    543354.34347    431423.35945  22896635.6174   22896635.4774
        45.0004         31.5004
    554411.07848    442872.33646  20579066.9924   20579066.0664
        50.2504         40.0004
    711956.18446    547739.32742  24784459.6094   24784458.8554
        40.5004         17.2504
 12  3 16 13 24 37.0000000  0  7G08G02G29G05G15G26G07
    609897.75746    486601.80543  24678138.5474   24678139.7854
        41.0004         20.0004
    843184.98448    638251.19945  21733078.5944   21733075.3054
        48.5004         34.7504
    676455.42648    524368.21246  21226453.1174   21226451.6954
        49.7504         40.2504
    802423.05248    605355.00947  20687248.7894   20687246.6334
        51.0004         43.0004
    539809.83647    428661.39145  22895961.6094   22895961.0164
        45.0004         32.0004
    552231.91548    441174.28646  20578652.3834   20578650.9964
        50.5004         39.7504
    712090.19346    547843.70742  24784485.6804   24784484.0594
        40.2504         17.7504
 12  3 16 13 24 38.0000000  0  7G08G02G29G05G15G26G07
    608061.10146    485170.64643  24677789.4534   24677790.0554
        40.7504         19.7504
    845595.64148    640129.63145  21733537.0394   21733533.8094
        48.7504         34.5004
    676097.94648    524089.65146  21226385.3204   21226383.7734
        49.5004         40.0004
    803693.54548    606345.00247  20687490.4694   20687488.4184
        51.0004         43.0004
    536266.14247    425900.07245  22895287.0864   22895286.7504
        45.0004         32.0004
    550054.00548    439477.21346  20578237.8054   20578236.4694
        50.5004         39.5004
    712225.45146    547949.07142  24784510.9614   24784510.2074
        39.5004         16.7504
 12  3 16 13 24 39.0000000  0  7G08G02G29G05G15G26G07
    606224.08546    483739.22543  24677439.2814   24677440.7704
        40.2504         19.2504
    848005.86448    642007.72145  21733995.8674   21733992.0434
        48.7504         35.0004
    675740.32848    523810.98346  21226317.5084   21226315.6724
        50.0004         40.2504
    804963.56148    607334.61647  20687732.3284   20687729.8874
        50.7504         42.7504
    532721.91447    423138.34545  22894612.1954   22894612.5354
        44.5004         31.5004
    547875.95848    437780.02946  20577823.5704   20577821.9454
        50.5004         39.5004
    712360.43246    548054.25542  24784536.6414   24784536.0124
        40.0004         17.7504
 12  3 16 13 24 40.0000000  0  7G08G02G29G05G15G26G07
    604388.25846    482308.70643  24677089.8914   24677091.3324
        39.7504         19.0004
    850417.25648    643886.72245  21734455.0084   21734451.3444
        48.5004         35.0004
    675384.16548    523533.45246  21226249.7114   21226247.9304
        50.5004         40.0004
    806234.70348    608325.12147  20687974.1564   20687972.4264
        50.7504         42.5004
    529178.72847    420377.43245  22893938.2504   22893938.2934
        45.0004         31.7504
    545699.39648    436084.00246  20577409.4774   20577407.7624
        50.5004         40.0004
    712496.82346    548160.55742  24784563.1024   24784561.9964
        40.2504         17.7504
 12  3 16 13 24 41.0000000  0  7G08G02G29G05G15G26G07
    602552.33746    480878.11743  24676740.4304   24676742.1724
        39.5004         19.2504
    852828.47248    645765.59445  21734913.3754   21734910.0164
        48.2504         35.0004
    675028.14748    523256.04346  21226181.7734   21226180.2304
        50.0004         40.0004
    807505.66248    609315.48147  20688216.2584   20688213.6994
        50.5004         42.7504
    525635.28047    417616.31945  22893264.3204   22893263.7974
        44.7504         32.0004
    543522.98748    434388.10146  20576995.3834   20576993.8874
        50.7504         39.7504
    712633.25546    548266.87842  24784588.8054   24784587.7464
        40.0004         17.7504
 12  3 16 13 24 42.0000000  0  7G08G02G29G05G15G26G07
    600716.95946    479447.98743  24676390.5314   24676393.2074
        40.0004         18.5004
    855240.27148    647644.91045  21735372.2814   21735368.9694
        48.5004         34.7504
    674672.99248    522979.30046  21226114.4844   21226112.5984
        50.0004         40.0004
    808777.12848    610306.23047  20688458.1094   20688455.8524
        50.7504         42.5004
    522092.29747    414855.56545  22892589.5784   22892589.7974
        44.2504         31.7504
    541347.46548    432692.89346  20576581.5004   20576579.8204
        50.5004         40.0004
    712770.56046    548373.86943  24784614.4384   24784614.0474
        40.0004         18.2504
 12  3 16 13 24 43.0000000  0  7G08G02G29G05G15G26G07
    598882.04546    478018.21043  24676042.0864   24676043.6024
        40.0004         18.5004
    857652.42448    649524.50845  21735831.2344   21735828.0704
        48.7504         34.7504
    674318.50948    522703.07746  21226046.8834   21226044.8914
        50.0004         40.0004
    810048.94248    611297.25847  20688700.1954   20688697.6294
        50.5004         42.2504
    518549.59947    412095.02245  22891915.7974   22891915.7734
        44.0004         31.7504
    539172.63748    430998.22546  20576167.3754   20576165.9264
        50.7504         40.2504
    712908.42146    548481.29243  24784640.6954   24784640.6994
        40.0004         19.5004
 12  3 16 13 24 44.0000000  0  9G10G08G02G21G29G05G15G26G07
    825697.07256    614033.86653  24605557.7664   24605557.8554
        40.2504         22.7504
    597047.48546    476588.62943  24675693.7194   24675694.4774
        39.7504         19.0004
    860064.87948    651404.34145  21736290.4614   21736287.3244
        48.2504         34.7504
    595577.31955    467659.08852  25082335.2504   25082333.4964
        35.5004         16.7504
    673964.61948    522427.32046  21225979.5234   21225977.5904
        50.2504         40.0004
    811320.99448    612288.46647  20688941.9924   20688939.8054
        51.0004         42.0004
    515007.06947    409334.61645  22891241.5784   22891241.6994
        44.5004         33.0004
    536998.39748    429304.01546  20575754.0234   20575752.4574
        51.2504         40.0004
    713046.82546    548589.14443  24784667.3284   24784666.8954
        39.0004         20.5004
 12  3 16 13 24 45.0000000  0  9G10G08G02G21G29G05G15G26G07
    828999.06846    616606.84343  24606185.8054   24606186.3244
        39.7504         22.7504
    595208.40746    475155.58243  24675342.9774   24675344.5204
        40.7504         18.5004
    862472.80548    653280.63445  21736748.7274   21736745.2424
        48.5004         35.2504
    592490.63946    465253.87642  25081748.2894   25081745.6884
        36.2504         17.7504
    673606.49048    522148.26246  21225911.5394   21225909.5204
        50.0004         40.0004
    812588.47848    613276.11147  20689183.7034   20689181.5084
        51.0004         42.2504
    511459.89247    406570.58145  22890566.8444   22890566.8404
        44.7504         32.2504
    534819.95048    427606.51846  20575339.0474   20575337.6954
        51.5004         40.2504
    713180.94946    548693.67143  24784693.5084   24784692.3524
        38.2504         20.2504
 12  3 16 13 24 46.0000000  0  9G10G08G02G21G29G05G15G26G07
    832305.83346    619183.53643  24606815.7344   24606815.4344
        40.5004         22.5004
    593374.45746    473726.50943  24674994.1024   24674995.7774
        40.7504         18.5004
    864885.81247    655160.88945  21737207.7344   21737204.3204
        47.7504         35.7504
    589408.58845    462852.28842  25081161.2974   25081159.2774
        34.7504         17.2504
    673253.76648    521873.41146  21225844.2504   21225842.5594
        49.7504         40.0004
    813861.01648    614267.70647  20689425.4844   20689423.5124
        51.0004         42.5004
    507917.70447    403810.44245  22889892.7814   22889892.1294
        44.2504         32.7504
    532646.90648    425913.24646  20574925.8674   20574923.6884
        51.5004         40.2504
    713320.40146    548802.34843  24784719.5704   24784718.7624
        37.2504         19.7504
 12  3 16 13 24 47.0000000  0  9G10G08G02G21G29G05G15G26G07
    835612.72946    621760.33643  24607444.7344   24607445.0124
        41.5004         22.5004
    591541.07946    472297.88243  24674645.3914   24674646.5594
        41.7504         18.5004
    867299.33748    657041.56045  21737667.1174   21737664.1094
        48.0004         35.5004
    586326.65945    460450.79042  25080575.5944   25080572.9534
        35.0004         17.2504
    672901.83848    521599.17946  21225776.8134   21225775.3554
        50.0004         40.0004
    815134.02248    615259.64647  20689667.8524   20689665.4844
        51.5004         42.0004
    504375.94447    401050.63545  22889218.7034   22889218.4414
        43.7504         32.5004
    530474.68548    424220.60346  20574512.2274   20574510.5274
        51.5004         40.0004
    713460.58646    548911.57743  24784745.9614   24784745.4224
        38.2504         19.5004
 12  3 16 13 24 48.0000000  0  9G10G08G02G21G29G05G15G26G07
    838919.59146    624337.09843  24608073.8834   24608074.6254
        41.5004         22.7504
    589708.10846    470869.57343  24674296.9224   24674297.6764
        41.2504         18.5004
    869713.23748    658922.52446  21738126.6024   21738122.9614
        48.0004         36.2504
    583244.73145    458049.27842  25079988.9534   25079986.5784
        35.7504         16.7504
    672550.58948    521325.47946  21225710.2894   21225708.3284
        50.2504         40.2504
    816407.35948    616251.85747  20689910.1954   20689908.1604
        51.0004         42.0004
    500834.41747    398290.99845  22888544.7894   22888544.4694
        44.2504         32.2504
    528303.12848    422528.47846  20574098.9224   20574097.5554
        51.2504         40.0004
    713601.27946    549021.18643  24784773.0634   24784772.6884
        38.5004         19.0004
 12  3 16 13 24 49.0000000  0  9G10G08G02G21G29G05G15G26G07
    842226.23946    626913.71443  24608703.2584   24608703.6134
        41.0004         23.2504
    587875.30346    469441.41643  24673947.8054   24673948.8554
        40.7504         19.0004
    872127.25347    660803.56745  21738586.1724   21738582.3914
        47.5004         35.2504
    580162.48545    455647.54742  25079402.8914   25079399.5594
        35.7504         16.2504
    672199.76548    521052.10746  21225643.6804   21225641.7544
        50.7504         40.2504
    817680.78948    617244.13747  20690152.4224   20690150.3204
        50.7504         42.2504
    497292.94847    395531.41545  22887870.6254   22887870.9774
        44.2504         32.2504
    526132.03748    420836.72346  20573685.5864   20573683.8634
        51.0004         39.5004
    713742.43146    549131.14643  24784799.8984   24784798.9774
        38.5004         18.5004
 12  3 16 13 24 50.0000000  0  9G10G08G02G21G29G05G15G26G07
    845533.09246    629490.50043  24609332.2814   24609332.7234
        39.5004         22.5004
    586043.19346    468013.84543  24673598.5864   24673599.9734
        39.5004         18.5004
    874541.94148    662685.14145  21739045.3364   21739041.7504
        48.2504         35.5004
    577080.49745    453245.97342  25078815.7894   25078813.0394
        35.5004         17.7504
    671849.89448    520779.47946  21225576.7114   21225574.9384
        50.7504         40.5004
    818954.83248    618236.89947  20690394.8134   20690392.6484
        50.5004         42.2504
    493752.00347    392772.22045  22887196.7504   22887196.8554
        44.5004         32.2504
    523961.92048    419145.72346  20573272.9224   20573271.5434
        51.5004         39.5004
    713884.40046    549241.77943  24784827.2114   24784826.5274
        38.2504         18.2504
 12  3 16 13 24 51.0000000  0  9G10G08G02G21G29G05G15G26G07
    848840.25046    632067.52243  24609962.1564   24609962.1054
        39.0004         22.0004
    584211.75446    466586.77043  24673250.2664   24673251.2734
        39.5004         19.0004
    876957.21648    664567.17145  21739504.9534   21739501.6294
        48.0004         35.5004
    573998.77645    450844.61942  25078228.9064   25078226.6684
        35.5004         17.2504
    671500.93048    520507.55546  21225510.5784   21225508.9654
        50.7504         40.5004
    820229.44048    619230.10147  20690637.4144   20690635.0044
        50.5004         42.2504
    490211.57947    390013.44145  22886523.1954   22886523.1024
        44.7504         32.7504
    521792.72648    417455.44846  20572859.8984   20572858.3874
        51.5004         39.5004
    714027.23446    549353.09743  24784853.5704   24784853.3244
        39.5004         18.2504
 12  3 16 13 24 52.0000000  0  9G10G08G02G21G29G05G15G26G07
    852147.09546    634644.28043  24610591.4614   24610591.4844
        40.0004         21.7504
    582380.40746    465159.77343  24672902.1094   24672902.5634
        40.0004         18.2504
    879372.61248    666449.29245  21739964.5314   21739961.3134
        48.0004         35.2504
    570916.66045    448442.97142  25077641.6094   25077639.8554
        35.7504         17.7504
    671152.36948    520235.95346  21225444.6094   21225442.5434
        50.7504         40.5004
    821504.12548    620223.36247  20690879.9614   20690877.5744
        50.0004         42.2504
    486671.15447    387254.66745  22885849.0704   22885849.2774
        44.2504         32.5004
    519623.94648    415765.49046  20572447.4304   20572446.1254
        51.2504         39.7504
    714170.42646    549464.72243  24784880.6564   24784880.9494
        40.2504         18.5004
 12  3 16 13 24 53.0000000  0  9G10G08G02G21G29G05G15G26G07
    855453.75546    637220.88143  24611220.2504   24611220.6214
        40.5004         22.0004
    580549.30446    463732.93743  24672553.7734   24672554.6294
        40.5004         18.5004
    881788.13847    668331.51445  21740424.1884   21740420.8634
        47.5004         35.2504
    567834.34245    446041.17042  25077055.0944   25077052.9224
        35.2504         17.2504
    670804.25448    519964.69546  21225378.3444   21225376.3284
        51.0004         40.2504
    822778.90548    621216.69447  20691122.3834   20691120.1724
        50.0004         42.2504
    483130.75447    384495.93245  22885175.6884   22885174.9924
        44.0004         32.0004
    517455.62848    414075.88446  20572035.0234   20572033.1644
        51.5004         40.0004
    714314.00346    549576.60843  24784908.4924   24784907.9344
        41.7504         18.2504
 12  3 16 13 24 54.0000000  0  9G10G08G02G21G29G05G15G26G07
    858760.66946    639797.74043  24611849.9844   24611849.9304
        40.0004         22.5004
    578718.95146    462306.68243  24672204.9144   24672206.3364
        39.5004         18.5004
    884204.38347    670214.30345  21740884.0164   21740880.8634
        47.5004         35.2504
    564752.32545    443639.62242  25076469.2664   25076467.0084
        35.5004         17.2504
    670457.14848    519694.22546  21225312.3364   21225309.9694
        51.0004         40.5004
    824054.34948    622210.54147  20691365.0164   20691362.8954
        50.0004         42.2504
    479590.99147    381737.68145  22884501.6484   22884501.7544
        44.2504         32.2504
    515288.33448    412387.07846  20571622.3524   20571620.6684
        51.0004         39.5004
    714458.49446    549689.19343  24784935.5164   24784935.5004
        41.0004         18.2504
 12  3 16 13 24 55.0000000  0  9G10G08G02G21G29G05G15G26G07
    862067.20446    642374.22943  24612478.6804   24612479.2504
        40.5004         22.2504
    576888.55846    460880.39743  24671856.4384   24671857.7344
        40.0004         18.5004
    886620.54147    672097.02245  21741343.7734   21741340.5084
        47.7504         35.5004
    561669.79145    441237.66542  25075883.3914   25075880.1454
        35.2504         17.2504
    670110.26548    519423.92046  21225246.1804   21225244.0394
        51.0004         40.2504
    825329.66648    623204.30347  20691608.0004   20691605.5084
        50.0004         42.5004
    476050.98847    378979.24345  22883828.3914   22883828.3284
        44.5004         32.7504
    513121.26448    410698.45346  20571209.8364   20571208.5044
        51.5004         39.2504
    714603.14346    549801.91242  24784963.1094   24784963.1414
        40.2504         17.7504
 12  3 16 13 24 56.0000000  0  9G10G08G02G21G29G05G15G26G07
    865374.22146    644951.13043  24613108.0314   24613108.3754
        40.5004         22.5004
    575059.07846    459454.82043  24671508.4534   24671509.5434
        39.2504         19.0004
    889037.59247    673980.43445  21741803.6804   21741800.6914
        47.5004         34.7504
    558587.79245    438836.07742  25075296.7424   25075293.9654
        35.2504         17.7504
    669764.57148    519154.55146  21225180.2504   21225178.3284
        50.7504         40.5004
    826605.85548    624198.73147  20691850.9844   20691848.2234
        50.0004         42.5004
    472511.78647    376221.42545  22883154.6644   22883154.6764
        44.5004         32.2504
    510955.40948    409010.77546  20570797.7894   20570796.3054
        51.0004         39.5004
    714748.94146    549915.52343  24784990.6094   24784991.0434
        40.5004         18.2504
 12  3 16 13 24 57.0000000  0  9G10G08G02G21G29G05G15G26G07
    868680.99346    647527.82143  24613737.6414   24613737.6844
        40.0004         22.5004
    573229.79446    458029.39843  24671160.0784   24671161.2894
        39.0004         18.5004
    891454.78147    675863.95445  21742263.5704   21742260.3834
        47.7504         34.7504
    555505.49245    436434.29642  25074710.1024   25074707.5044
        35.5004         17.7504
    669419.29948    518885.50846  21225114.7814   21225112.8714
        50.5004         40.7504
    827882.10348    625193.21947  20692093.6174   20692090.7894
        50.2504         42.2504
    468972.63447    373463.65145  22882481.3914   22882481.1134
        44.5004         33.0004
    508790.00048    407323.45546  20570385.7274   20570384.3874
        50.7504         39.5004
    714895.05246    550029.37143  24785018.9144   24785018.7504
        40.7504         18.5004
 12  3 16 13 24 58.0000000  0  9G10G08G02G21G29G05G15G26G07
    871987.67746    650104.45743  24614366.6024   24614367.2424
        39.7504         22.2504
    571400.83046    456604.22943  24670811.8284   24670813.1174
        39.0004         18.5004
    893872.20447    677747.66845  21742724.0474   21742720.7074
        47.2504         35.2504
    552423.03645    434032.38542  25074122.8284   25074120.5704
        35.0004         17.7504
    669074.62048    518616.93246  21225049.0084   21225047.3954
        50.5004         40.5004
    829158.62348    626187.90547  20692336.6254   20692333.9844
        50.5004         42.2504
    465433.62747    370705.99045  22881807.8984   22881807.9264
        45.0004         32.2504
    506625.19648    405636.59446  20569973.6644   20569972.3984
        50.7504         39.7504
    715041.74046    550143.67143  24785047.1094   24785046.8054
        39.5004         18.2504
 12  3 16 13 24 59.0000000  0  9G10G08G02G21G29G05G15G26G07
    875294.60946    652681.27443  24614996.3444   24614995.9414
        40.0004         22.0004
    569572.49246    455179.58043  24670464.6094   24670465.8204
        39.0004         18.5004
    896290.29247    679631.89045  21743183.5164   21743180.4844
        47.5004         35.0004
    549340.85945    431630.68943  25073536.6954   25073534.3714
        35.2504         18.2504
    668730.85248    518349.06546  21224983.5394   21224981.4884
        50.5004         40.7504
    830435.69248    627183.03047  20692579.6414   20692576.9884
        50.2504         42.5004
    461895.15247    367948.74345  22881135.0234   22881134.2274
        45.2504         32.2504
    504461.31948    403950.44946  20569561.9384   20569560.4734
        50.7504         39.5004
    715189.26946    550258.66643  24785075.0004   24785074.5394
        38.0004         18.2504
 12  3 16 13 25  0.0000000  0  9G10G08G02G21G29G05G15G26G07
    878601.21646    655257.84543  24615625.2114   24615625.5784
        40.2504         22.0004
    567744.28946    453755.01943  24670116.7504   24670117.5474
        38.2504         19.0004
    898708.40247    681516.13745  21743644.1174   21743640.9574
        47.5004         35.2504
    546258.30445    429228.69042  25072950.6094   25072947.6024
        34.5004         17.7504
    668387.45848    518081.48346  21224918.1954   21224916.4844
        50.7504         41.0004
    831712.79048    628178.17247  20692822.5554   20692820.4844
        50.2504         42.5004
    458356.63347    365191.45545  22880461.8364   22880461.1374
        46.0004         32.0004
    502297.81548    402264.60246  20569150.4384   20569148.6454
        50.7504         39.2504
    715337.04746    550373.83143  24785103.7664   24785102.3524
        38.0004         18.2504
 12  3 16 13 25  1.0000000  0  9G10G08G02G21G29G05G15G26G07
    881907.79046    657834.39143  24616254.3594   24616254.7894
        41.2504         21.7504
    565916.49946    452330.77143  24669769.1954   24669770.0984
        38.5004         18.5004
    901126.89448    683400.68345  21744104.5234   21744101.0394
        48.0004         35.2504
    543175.71045    426826.66142  25072363.9454   25072360.9304
        34.7504         17.2504
    668044.70348    517814.40446  21224853.0474   21224851.2274
        51.0004         41.0004
    832990.19248    629173.55047  20693065.4224   20693063.4734
        50.5004         42.5004
    454818.35947    362434.36445  22879787.9224   22879787.9804
        45.7504         32.2504
    500134.96648    400579.26946  20568738.7194   20568737.0864
        50.7504         39.2504
    715485.40946    550489.42843  24785131.9064   24785130.7974
        38.2504         18.2504
 12  3 16 13 25  2.0000000  0  9G10G08G02G21G29G05G15G26G07
    885214.49146    660411.03443  24616883.3364   24616883.9494
        41.5004         22.0004
    564089.30546    450906.98043  24669421.8524   24669422.3914
        39.5004         18.5004
    903545.91648    685285.62645  21744564.8444   21744561.4884
        48.0004         35.7504
    540093.20445    424424.70642  25071776.7894   25071774.1804
        35.0004         17.7504
    667702.77948    517547.96446  21224787.9304   21224785.8634
        51.0004         41.0004
    834268.11148    630169.32547  20693309.0554   20693306.6024
        50.5004         42.5004
    451280.51347    359677.59245  22879114.2814   22879114.6414
        45.5004         32.5004
    497972.99548    398894.61846  20568327.4304   20568326.0354
        51.2504         39.5004
    715634.59946    550605.67243  24785160.2274   24785159.0744
        38.5004         18.2504
 12  3 16 13 25  3.0000000  0  9G10G08G02G21G29G05G15G26G07
    888521.25946    662987.74743  24617513.0784   24617513.3714
        41.7504         22.2504
    562262.53446    449483.50543  24669073.8834   24669074.5204
        39.7504         18.5004
    905965.30848    687170.85545  21745025.0474   21745021.6254
        48.0004         35.5004
    537010.70245    422022.77042  25071190.4144   25071188.0354
        35.0004         17.7504
    667361.53448    517282.06446  21224722.7664   21224721.0984
        51.0004         41.0004
    835546.36348    631165.36647  20693552.1954   20693549.6134
        51.0004         42.5004
    447742.94447    356921.03945  22878441.2814   22878441.1254
        45.5004         32.5004
    495811.69248    397210.48746  20567916.1024   20567914.6294
        51.5004         39.5004
    715784.36246    550722.36943  24785188.2114   24785187.8404
        39.2504         18.2504
 12  3 16 13 25  4.0000000  0  9G10G08G02G21G29G05G15G26G07
    891827.88647    665564.33143  24618142.4064   24618142.3984
        42.0004         22.7504
    560436.02846    448060.24143  24668725.8204   24668727.3054
        39.0004         18.5004
    908384.97548    689056.31045  21745485.8914   21745482.4614
        48.2504         35.5004
    533928.09045    419620.75342  25070603.9144   25070600.7424
        34.5004         17.7504
    667020.85748    517016.59746  21224658.0474   21224656.2934
        50.5004         41.0004
    836824.85048    632161.59147  20693795.5554   20693793.0474
        51.0004         42.5004
    444205.56747    354164.63845  22877768.3134   22877768.1374
        45.0004         31.7504
    493651.00648    395526.83246  20567504.9144   20567503.4804
        51.7504         39.5004
    715934.62646    550839.42943  24785216.6094   24785216.5744
        39.0004         18.2504
 12  3 16 13 25  5.0000000  0  9G10G08G02G21G29G05G15G26G07
    895134.49547    668140.89443  24618771.6174   24618771.3634
        42.0004         22.7504
    558609.94846    446637.30843  24668378.6644   24668379.9454
        39.5004         19.0004
    910805.02447    690942.05745  21745945.9924   21745942.8444
        47.5004         35.5004
    530845.42845    417218.66742  25070017.3834   25070014.3054
        34.7504         17.7504
    666680.87848    516751.67946  21224593.3524   21224591.3134
        50.2504         41.0004
    838103.68048    633158.07247  20694038.4304   20694036.1914
        51.0004         42.5004
    440668.41747    351408.41245  22877095.0704   22877095.0274
        45.0004         32.2504
    491491.01248    393843.71946  20567093.8524   20567092.1484
        51.5004         39.5004
    716085.51146    550957.00043  24785245.3284   24785245.1844
        38.7504         18.2504
 12  3 16 13 25  6.0000000  0  9G10G08G02G21G29G05G15G26G07
    898441.13446    670717.49643  24619400.3444   24619400.8634
        40.5004         22.7504
    556784.35646    445214.79643  24668031.0004   24668032.6024
        39.0004         18.5004
    913225.47147    692828.11545  21746406.6174   21746403.5234
        47.5004         35.5004
    527762.75845    414816.57742  25069430.0164   25069428.0434
        34.5004         17.2504
    666341.57948    516487.28446  21224528.9304   21224526.9264
        50.2504         41.0004
    839382.85448    634154.83747  20694282.3524   20694279.8014
        51.0004         42.2504
    437131.59847    348652.45845  22876422.1094   22876421.6804
        45.2504         32.0004
    489331.70948    392161.14446  20566683.0474   20566681.4844
        51.5004         39.2504
    716237.02046    551075.04243  24785274.3674   24785274.0314
        38.5004         18.2504
 12  3 16 13 25  7.0000000  0  9G10G08G02G21G29G05G15G26G07
    901747.66546    673294.01243  24620029.6644   24620030.1374
        41.2504         22.7504
    554959.03946    443792.48743  24667683.3204   24667685.1174
        39.2504         19.2504
    915646.17147    694714.37746  21746867.4774   21746864.3834
        47.5004         36.0004
    524680.00845    412414.40142  25068843.3364   25068841.3244
        34.0004         17.2504
    666002.84548    516223.33146  21224464.4144   21224462.6054
        50.5004         41.2504
    840662.25748    635151.77147  20694525.5944   20694523.0314
        51.2504         42.0004
    433594.92247    345896.61145  22875748.8134   22875748.3714
        44.7504         32.0004
    487172.99848    390479.02746  20566271.9304   20566270.2854
        51.5004         39.7504
    716389.03246    551193.53442  24785303.3364   24785302.9494
        38.5004         17.7504
 12  3 16 13 25  8.0000000  0  9G10G08G02G21G29G05G15G26G07
    905054.33946    675870.63843  24620659.0084   24620658.9494
        41.7504         22.0004
    553134.27946    442370.62443  24667337.0554   24667338.0474
        40.5004         19.0004
    918067.36747    696601.02645  21747328.0474   21747324.9224
        47.7504         35.2504
    521597.20945    410012.23342  25068257.3754   25068254.7384
        34.5004         17.2504
    665664.89748    515959.99946  21224400.4384   21224398.7234
        50.7504         41.2504
    841942.10248    636149.05247  20694769.3054   20694766.6454
        51.5004         42.2504
    430058.63847    343141.07645  22875076.2584   22875076.1024
        44.5004         31.7504
    485015.09348    388797.54246  20565861.3834   20565859.8524
        51.7504         39.7504
    716541.79946    551312.55042  24785331.5554   24785332.4774
        38.5004         17.7504
 12  3 16 13 25  9.0000000  0  9G10G08G02G21G29G05G15G26G07
    908360.96546    678447.21843  24621287.7734   24621288.3674
        41.7504         22.7504
    551309.93646    440949.04443  24666989.7274   24666990.8754
        40.5004         18.5004
    920488.96247    698487.98545  21747788.7664   21747785.8364
        47.7504         35.2504
    518514.51545    407610.15342  25067670.9844   25067668.0434
        33.7504         17.7504
    665327.65248    515697.20846  21224335.7584   21224334.0904
        51.0004         41.0004
    843222.31048    637146.62147  20695012.6094   20695010.1564
        51.0004         42.2504
    426522.64347    340385.75345  22874403.7194   22874402.9694
        44.5004         31.7504
    482857.92648    387116.64246  20565451.3444   20565449.3134
        51.2504         39.7504
    716695.14846    551432.04442  24785361.0554   24785361.7034
        38.0004         17.7504
 12  3 16 13 25 10.0000000  0  9G10G08G02G21G29G05G15G26G07
    911667.53947    681023.76443  24621917.3364   24621917.3754
        42.0004         22.7504
    549485.94246    439527.74243  24666642.4064   24666643.7734
        40.0004         18.5004
    922910.81348    700375.14445  21748249.4144   21748246.7034
        48.2504         35.0004
    515431.61145    405207.91442  25067082.2664   25067080.4534
        33.5004         17.2504
    664990.97848    515434.86746  21224272.0394   21224269.8094
        51.0004         40.7504
    844502.74348    638144.35847  20695256.3054   20695254.2704
        50.7504         42.7504
    422986.82547    337630.57645  22873730.3444   22873729.9774
        45.0004         32.0004
    480701.33048    385436.18046  20565040.8524   20565039.3134
        51.0004         39.7504
    716849.04946    551551.95342  24785389.8054   24785390.9884
        37.0004         17.7504
 12  3 16 13 25 11.0000000  0  9G10G08G02G21G29G05G15G26G07
    914973.91746    683600.14443  24622546.1174   24622546.8164
        41.7504         22.5004
    547662.16446    438106.61343  24666295.7194   24666296.5164
        39.2504         19.0004
    925332.86347    702262.44945  21748710.4774   21748707.2154
        47.7504         35.5004
    512348.48945    402805.47342  25066497.3284   25066495.2304
        33.0004         16.7504
    664654.76248    515172.87146  21224207.7584   21224206.1954
        50.5004         40.7504
    845783.30448    639142.19047  20695499.8834   20695497.9534
        50.5004         42.5004
    419451.06647    334875.44045  22873057.4064   22873057.6254
        44.2504         32.0004
    478545.22348    383756.09046  20564630.3834   20564628.8094
        51.0004         39.7504
    717003.28946    551672.11842  24785418.8984   24785420.3954
        38.2504         17.7504
 12  3 16 13 25 12.0000000  0  9G10G08G02G21G29G05G15G26G07
    918280.70246    686176.85243  24623175.7344   24623175.9344
        41.2504         22.5004
    545839.23046    436686.13043  24665947.9774   24665950.0704
        39.2504         19.2504
    927755.71847    704150.38145  21749171.6644   21749168.6294
        47.5004         35.2504
    509265.77445    400403.35742  25065908.9534   25065907.0634
        33.5004         17.2504
    664319.67248    514911.75946  21224144.3914   21224142.3324
        50.5004         41.0004
    847064.64848    640140.64547  20695743.5554   20695741.8014
        50.2504         42.5004
    415916.02347    332120.86745  22872385.1254   22872385.1334
        44.7504         32.2504
    476390.26248    382076.90046  20564220.2504   20564218.2234
        50.7504         39.2504
    717158.62146    551793.17043  24785448.6954   24785449.6764
        38.7504         18.5004
 12  3 16 13 25 13.0000000  0  9G10G08G02G21G29G05G15G26G07
    921587.04147    688753.22843  24623805.3054   24623805.5474
        42.0004         22.7504
    544016.26346    435265.62743  24665601.8914   24665602.8674
        39.2504         19.2504
    930178.51447    706038.27646  21749632.5394   21749629.5394
        47.7504         36.0004
    506182.60845    398000.87742  25065324.2344   25065321.8164
        33.2504         17.2504
    663984.80748    514650.83446  21224080.6644   21224078.4344
        51.0004         40.7504
    848345.87348    641139.00147  20695987.4144   20695985.3634
        50.5004         42.7504
    412380.79047    329366.15245  22871712.6254   22871712.4844
        44.5004         32.0004
    474235.54948    380397.90446  20563810.3284   20563808.5744
        51.0004         39.2504
    717314.08546    551914.29543  24785478.3054   24785479.3404
        39.5004         18.5004
 12  3 16 13 25 14.0000000  0  9G10G08G02G21G29G05G15G26G07
    924893.68046    691329.83243  24624433.1414   24624434.7424
        41.2504         22.2504
    542194.06246    433845.74543  24665254.7504   24665256.3914
        39.2504         19.2504
    932602.00047    707926.70745  21750093.6094   21750091.0474
        47.5004         35.2504
    503099.76745    395598.63642  25064737.1954   25064735.2344
        32.5004         17.2504
    663650.96148    514390.69446  21224017.1564   21224015.2504
        51.0004         40.7504
    849627.77448    642137.89347  20696231.6024   20696229.2034
        50.7504         42.5004
    408846.17947    326611.92345  22871039.4534   22871039.7664
        44.7504         32.0004
    472081.81348    378719.66746  20563400.5164   20563398.6374
        50.7504         39.2504
    717470.50846    552036.20343  24785508.3914   24785509.0944
        39.0004         18.5004
 12  3 16 13 25 15.0000000  0  9G10G08G02G21G29G05G15G26G07
    928200.10046    693906.26743  24625063.6884   24625064.0984
        40.5004         22.2504
    540372.02146    432425.98543  24664907.9534   24664909.4454
        39.0004         19.5004
    935025.59247    709815.21645  21750555.1884   21750551.9414
        47.2504         35.5004
    500016.65945    393196.23142  25064150.8834   25064148.5984
        32.0004         17.2504
    663317.52948    514130.87546  21223953.2664   21223951.7774
        51.0004         40.7504
    850909.76048    643136.84447  20696475.6564   20696473.2074
        50.7504         42.5004
    405311.59147    323857.69445  22870366.9774   22870366.9494
        44.5004         32.5004
    469928.57248    377041.82046  20562990.7194   20562989.0124
        50.5004         39.5004
    717627.28746    552158.36443  24785538.8054   24785539.1414
        38.5004         19.2504
 12  3 16 13 25 16.0000000  0  9G10G08G02G21G29G05G15G26G07
    931507.04946    696483.11643  24625692.9774   24625693.6374
        41.2504         22.5004
    538550.98446    431007.02143  24664561.5164   24664562.9024
        40.2504         19.0004
    937450.14647    711704.48845  21751016.3444   21751013.3914
        47.5004         35.2504
    496934.00545    390794.18242  25063562.1254   25063560.6374
        31.7504         17.2504
    662985.33748    513872.03346  21223890.4614   21223888.5864
        51.0004         40.5004
    852192.63848    644136.49447  20696719.6094   20696717.8134
        50.5004         42.5004
    401777.83247    321104.12145  22869694.3834   22869694.2734
        44.7504         32.5004
    467776.55548    375364.93146  20562581.0004   20562579.5984
        50.7504         40.0004
    717785.26346    552281.43643  24785568.9064   24785568.8874
        39.5004         19.5004
 12  3 16 13 25 17.0000000  0  9G10G08G02G21G29G05G15G26G07
    934813.06546    699059.23343  24626321.7814   24626321.8524
        40.7504         22.5004
    536729.35246    429587.58243  24664215.9844   24664215.9734
        40.2504         19.0004
    939874.08047    713593.26445  21751477.5784   21751474.1254
        47.5004         35.5004
    493850.38545    388391.37642  25062977.3914   25062974.9414
        32.0004         17.7504
    662652.82948    513612.93446  21223826.9534   21223825.1604
        50.5004         40.5004
    853474.86148    645135.62947  20696963.8984   20696961.4304
        50.7504         42.5004
    398243.36347    318349.99545  22869021.7344   22869021.7664
